name,rating,rating_norm,price_range,is_sponsored,latitude,longitude,has_delivery,is_premium,reviews,reviews_rating_1,reviews_rating_2,reviews_rating_3,reviews_rating_4,reviews_rating_5,IsIn_MICHELIN_Guide,num_cuisines,Italian,American,Chinese,Healthy,Seafood,Middle Eastern,International,Indian,Central Asian,Bar,European,Pizza,Asian,Latin,Japanese,Cafe,British,French,Fast Food,African,Vegan,Halal/Kosher,Gluten-free,Vegetarian friendly,The menu does not match the diets,Parking,Free Wifi,Dog Friendly,Options for PWD, Has Diff Payment Options,Family,Good Location,Gift Cards,Alcohol,Reservations,Has Diff Dining Services,Entertainment
Leicester Arms,4.5,0.7211120136822641,$$ - $$$,True,51.510597,-0.137677,False,False,602,30.0,23.0,51.0,156.0,342.0,0.0,2,0,0,0,0,0,0,0,0,0,1,0,0,0,0,0,0,1,0,0,0,0,0,1,1,0,1,1,0,0,1,1,0,0,1,1,1,1
Swiss Butter,4.0,-0.32814924561338926,$$ - $$$,True,51.52062,-0.122808,False,True,182,21.0,15.0,14.0,22.0,110.0,0.0,2,0,0,0,0,1,0,0,0,0,0,0,0,0,0,0,0,0,1,0,0,0,0,0,0,1,0,0,0,1,1,0,0,0,1,0,1,0
Florattica Rooftop Bar London,4.5,0.7211120136822641,$$ - $$$,False,51.512955,-0.075292,False,True,316,15.0,4.0,7.0,11.0,279.0,0.0,5,0,0,0,1,0,0,0,0,0,1,1,0,0,0,0,0,1,0,0,0,0,0,0,0,1,0,1,0,0,1,0,0,0,1,1,1,0
The Black Dog Freehouse,4.5,0.7211120136822641,$$ - $$$,False,51.488724,-0.120889,False,False,733,19.0,23.0,47.0,216.0,428.0,0.0,3,0,0,0,0,0,0,0,0,0,1,0,0,0,0,0,0,1,0,0,0,1,0,1,1,0,0,1,0,1,1,0,0,0,1,1,1,0
Fitz's Brasserie,5.0,1.7703732729779174,$$ - $$$,False,51.522408,-0.124933,False,False,48,0.0,1.0,1.0,2.0,44.0,0.0,3,0,0,0,0,1,0,1,0,0,0,0,0,0,0,0,0,1,0,0,0,0,0,0,1,0,0,0,1,1,0,0,0,0,1,1,1,0
Brother Marcus Covent Garden,5.0,1.7703732729779174,$$ - $$$,False,51.51281,-0.126368,False,False,114,0.0,1.0,2.0,2.0,109.0,0.0,5,0,0,0,0,1,1,0,0,0,0,1,0,0,0,0,0,0,0,0,0,1,0,1,1,0,0,0,0,0,1,0,0,0,1,1,1,0
Circolo Popolare,4.5,0.7211120136822641,$$ - $$$,False,51.51725,-0.133866,False,False,2507,178.0,161.0,227.0,229.0,1713.0,0.0,7,1,0,0,0,1,0,0,0,0,0,0,1,0,0,0,0,0,0,0,0,1,0,1,1,0,0,0,0,0,0,0,0,0,1,1,1,0
Blue Posts,4.5,0.7211120136822641,$$ - $$$,True,51.512913,-0.139426,False,False,272,16.0,7.0,16.0,45.0,188.0,0.0,3,0,0,0,0,0,0,0,0,0,1,0,0,0,0,0,0,1,0,0,0,0,0,0,1,0,0,1,1,0,1,1,1,0,1,1,1,1
Americana London,5.0,1.7703732729779174,$$ - $$$,False,51.50882,-0.131699,False,False,727,6.0,9.0,15.0,59.0,638.0,0.0,3,0,1,0,0,1,0,0,0,0,1,0,0,0,0,0,0,0,0,0,0,1,0,1,1,0,1,1,1,1,1,1,0,0,1,1,1,1
Altonapoli Italian Restaurant And Bar,4.5,0.7211120136822641,$$ - $$$,False,51.530373,-0.122878,True,False,192,9.0,8.0,6.0,15.0,158.0,0.0,1,1,0,0,0,0,0,0,0,0,0,0,0,0,0,0,0,0,0,0,0,1,0,0,1,0,1,1,1,1,1,1,0,0,1,1,1,0
The Ivy City Garden,4.0,-0.32814924561338926,$$ - $$$,False,51.51671,-0.082569,False,False,1248,43.0,90.0,121.0,281.0,713.0,0.0,1,0,0,0,0,0,0,0,0,0,0,0,0,0,0,0,0,1,0,0,0,1,0,1,1,0,0,1,0,1,1,0,0,1,1,1,1,0
The Goat Tavern,4.5,0.7211120136822641,$$ - $$$,False,51.508865,-0.141265,False,False,198,11.0,4.0,17.0,53.0,113.0,0.0,3,0,0,0,0,0,0,0,0,0,1,0,0,0,0,0,0,1,0,0,0,0,0,1,1,0,1,1,0,0,1,1,0,0,1,1,1,1
The Ivy,4.0,-0.32814924561338926,$$$$,False,51.512833,-0.128076,False,False,7427,303.0,420.0,891.0,1803.0,4010.0,0.0,2,0,0,0,0,0,0,0,0,0,0,1,0,0,0,0,0,1,0,0,0,1,0,1,1,0,0,0,0,1,1,0,0,0,1,1,1,0
Bar Douro London Bridge,4.5,0.7211120136822641,$$ - $$$,False,51.504406,-0.095385,False,False,302,8.0,12.0,18.0,76.0,188.0,0.0,1,0,0,0,0,0,0,0,0,0,0,1,0,0,0,0,0,0,0,0,0,0,0,1,1,0,0,1,0,0,1,0,0,0,1,1,1,0
Sky Pod Bar,4.5,0.7211120136822641,$$ - $$$,False,51.511192,-0.083558,False,False,2506,71.0,77.0,137.0,432.0,1788.0,0.0,2,0,0,0,0,0,0,0,0,0,1,0,0,0,0,0,0,1,0,0,0,1,0,1,1,0,0,1,0,1,1,0,0,0,1,1,1,1
Elaine's London,5.0,1.7703732729779174,$$ - $$$,False,51.515995,-0.119731,False,False,90,0.0,0.0,1.0,9.0,81.0,0.0,1,0,1,0,0,0,0,0,0,0,0,0,0,0,0,0,0,0,0,0,0,0,0,0,1,0,0,0,0,0,0,0,0,0,1,1,1,0
Le Cafe du Marche,4.0,-0.32814924561338926,$$ - $$$,False,51.520596,-0.100708,False,False,458,10.0,21.0,40.0,166.0,221.0,0.0,3,0,0,0,0,0,0,1,0,0,0,1,0,0,0,0,0,0,1,0,0,0,0,1,1,0,0,0,0,0,1,0,0,0,1,1,1,1
Avanti Chiswick,4.5,0.7211120136822641,$$ - $$$,True,51.496357,-0.255952,True,True,140,5.0,6.0,10.0,24.0,95.0,0.0,4,1,0,0,0,1,0,0,0,0,0,1,0,0,0,0,0,0,0,0,0,1,0,1,1,0,0,0,0,1,1,0,0,0,1,1,1,0
The Piano Works - Covent Garden,4.0,-0.32814924561338926,$$ - $$$,False,51.51535,-0.122341,False,False,479,73.0,35.0,43.0,47.0,281.0,0.0,3,0,0,0,0,0,0,1,0,0,1,0,0,0,0,0,0,1,0,0,0,0,0,0,1,0,0,0,0,0,1,0,0,1,1,1,1,1
La Mia Mamma,4.0,-0.32814924561338926,$$ - $$$,False,51.486076,-0.172162,False,False,525,58.0,30.0,27.0,51.0,359.0,0.0,6,1,0,0,0,1,0,0,0,0,0,1,0,0,0,0,0,0,0,0,0,1,0,1,1,0,0,1,0,1,0,0,0,0,1,1,1,0
Bella Italia South Kensington,4.0,-0.32814924561338926,$$ - $$$,False,51.49308,-0.176563,True,False,1178,75.0,59.0,114.0,201.0,729.0,0.0,4,1,0,0,1,1,0,0,0,0,0,0,1,0,0,0,0,0,0,0,0,1,0,1,1,0,0,1,0,1,1,0,0,0,1,1,1,0
Flat Iron Shoreditch,4.5,0.7211120136822641,$$ - $$$,False,51.524963,-0.0804,False,False,731,15.0,12.0,29.0,137.0,538.0,0.0,2,0,0,0,0,1,0,0,0,0,0,0,0,0,0,0,0,1,0,0,0,0,0,1,0,0,0,1,0,1,1,0,0,0,1,0,1,0
Afternoon Tea At The Montague On The Gardens,4.5,0.7211120136822641,$$ - $$$,False,51.520283,-0.125565,False,False,300,4.0,14.0,18.0,64.0,200.0,0.0,1,0,0,0,0,0,0,0,0,0,0,0,0,0,0,0,1,0,0,0,0,0,0,1,1,0,0,1,1,0,1,1,0,0,1,1,1,1
La Petite Auberge,4.5,0.7211120136822641,$$ - $$$,False,51.53987,-0.1025,True,False,649,16.0,15.0,63.0,183.0,373.0,0.0,2,0,0,0,0,0,0,0,0,0,0,1,0,0,0,0,0,0,1,0,0,1,0,1,1,0,0,1,0,1,1,0,0,0,1,1,1,0
Cento Alla Torre,4.5,0.7211120136822641,$$ - $$$,False,51.51018,-0.075285,False,False,452,10.0,11.0,9.0,58.0,365.0,0.0,2,1,0,0,0,0,0,0,0,0,0,0,1,0,0,0,0,0,0,0,0,1,0,0,1,0,0,1,0,1,1,1,0,0,1,1,1,0
"OXO Tower Restaurant, Bar and Brasserie",4.5,0.7211120136822641,$$$$,False,51.50845,-0.108266,False,False,10091,240.0,431.0,1120.0,2992.0,5309.0,0.0,5,0,0,0,0,0,0,1,0,0,1,1,0,0,0,0,0,1,0,0,0,1,0,1,1,0,0,1,0,1,1,0,0,1,1,1,1,0
Pierino,4.5,0.7211120136822641,$$ - $$$,False,51.49508,-0.173977,False,False,1411,48.0,44.0,121.0,464.0,734.0,0.0,10,1,0,0,0,1,0,0,0,0,0,1,1,0,0,0,0,0,0,0,0,1,0,1,1,0,0,0,0,1,1,0,0,0,1,1,1,0
Smoking Goat Shoreditch,4.0,-0.32814924561338926,$$ - $$$,False,51.524254,-0.076996,False,False,420,28.0,52.0,56.0,94.0,190.0,0.0,2,0,0,0,0,0,0,0,0,0,0,0,0,1,0,0,0,0,0,0,0,0,0,1,1,0,0,0,0,0,0,0,0,0,1,1,1,0
Ognisko Restaurant,4.5,0.7211120136822641,$$ - $$$,False,51.499077,-0.173974,False,False,888,23.0,23.0,56.0,220.0,566.0,0.0,1,0,0,0,0,0,0,0,0,0,0,1,0,0,0,0,0,0,0,0,0,0,0,1,1,0,0,1,0,0,1,0,0,0,1,1,1,0
Canada Water Cafe,4.5,0.7211120136822641,$$ - $$$,False,51.49876,-0.049143,True,False,658,30.0,35.0,49.0,120.0,424.0,0.0,2,1,0,0,0,0,0,0,0,0,0,0,1,0,0,0,0,0,0,0,0,1,0,1,1,0,0,1,0,1,1,0,0,0,1,1,1,0
Bar + Block Steakhouse London Hammersmith,4.5,0.7211120136822641,$$ - $$$,False,51.493782,-0.223736,False,False,273,18.0,12.0,11.0,28.0,204.0,0.0,4,0,0,0,0,1,0,1,0,0,1,0,0,0,0,0,0,1,0,0,0,0,0,0,0,1,0,0,0,1,0,0,0,0,1,1,1,0
The Cadogan Arms,4.0,-0.32814924561338926,$$ - $$$,False,51.486008,-0.17294,False,False,109,9.0,13.0,12.0,6.0,69.0,0.0,3,0,0,0,0,0,0,0,0,0,1,0,0,0,0,0,0,1,0,0,0,0,0,0,0,1,0,0,0,0,1,0,0,0,1,1,1,0
Uzumaki London,5.0,1.7703732729779174,$$ - $$$,False,51.517544,-0.129239,False,False,630,4.0,0.0,10.0,50.0,571.0,0.0,4,0,0,0,1,0,0,0,0,0,0,0,0,1,0,1,0,0,0,0,0,1,0,0,1,0,1,1,0,0,1,1,0,0,1,1,1,0
Greencoat Boy,4.5,0.7211120136822641,$$ - $$$,True,51.496414,-0.135764,False,False,350,20.0,10.0,24.0,72.0,224.0,0.0,3,0,0,0,0,0,0,0,0,0,1,0,0,0,0,0,0,1,0,0,0,0,0,0,0,1,0,1,1,0,1,1,0,0,1,1,1,0
Verdi - Italian Kitchen,4.5,0.7211120136822641,$$ - $$$,False,51.500748,-0.177405,False,False,1861,47.0,95.0,170.0,462.0,1087.0,0.0,4,1,0,0,0,0,0,0,0,0,0,0,1,0,0,0,0,0,0,0,0,1,0,0,1,0,0,1,0,1,1,0,0,0,1,1,1,1
Chop Chop,5.0,1.7703732729779174,$$ - $$$,False,51.51146,-0.128948,False,True,429,5.0,1.0,4.0,21.0,398.0,0.0,2,0,0,1,0,0,0,0,0,0,0,0,0,1,0,0,0,0,0,0,0,1,0,1,1,0,0,1,0,1,1,1,0,0,1,1,1,0
Comptoir Libanais London Bridge,4.5,0.7211120136822641,$$ - $$$,False,51.504696,-0.083912,True,False,454,29.0,20.0,25.0,49.0,331.0,0.0,3,0,0,0,0,1,1,0,0,0,0,0,0,0,0,0,0,0,0,0,0,1,0,1,1,0,0,1,0,0,1,0,0,0,1,1,1,0
The Bike Shed,4.5,0.7211120136822641,$$ - $$$,False,51.527115,-0.078876,False,False,754,16.0,26.0,56.0,179.0,477.0,0.0,3,0,1,0,0,0,0,0,0,0,1,0,0,0,0,0,0,1,0,0,0,1,0,1,1,0,1,1,0,1,1,0,0,0,1,1,1,0
Buddha Taste,5.0,1.7703732729779174,$$ - $$$,True,51.4676,0.007758,False,True,7,0.0,0.0,0.0,1.0,6.0,0.0,5,0,0,1,0,0,0,1,0,0,0,0,0,1,0,1,0,0,0,0,0,0,0,0,0,1,0,1,1,0,1,1,0,0,1,1,1,0
Il Bordello,4.5,0.7211120136822641,$$ - $$$,False,51.506615,-0.052638,True,False,1024,48.0,43.0,72.0,220.0,641.0,0.0,4,1,0,0,0,1,0,0,0,0,0,1,1,0,0,0,0,0,0,0,0,1,0,1,1,0,1,0,0,1,1,1,0,1,1,1,1,0
Riding House Fitzrovia,4.0,-0.32814924561338926,$$ - $$$,False,51.518314,-0.140572,False,False,1563,97.0,163.0,226.0,487.0,590.0,0.0,2,0,0,0,0,0,0,0,0,0,0,1,0,0,0,0,0,1,0,0,0,1,0,1,1,0,0,1,0,1,1,0,0,0,1,1,1,0
The Ivy Kensington Brasserie,4.0,-0.32814924561338926,$$ - $$$,False,51.501488,-0.192334,False,False,1914,133.0,149.0,243.0,475.0,914.0,0.0,1,0,0,0,0,0,0,0,0,0,0,0,0,0,0,0,0,1,0,0,0,1,0,1,1,0,0,1,0,1,1,0,0,1,1,1,1,0
The Library at County Hall,4.5,0.7211120136822641,$$ - $$$,False,51.501575,-0.119523,False,True,1493,25.0,38.0,69.0,158.0,1203.0,0.0,2,0,0,0,0,0,0,0,0,0,0,0,0,0,0,0,1,1,0,0,0,1,0,1,1,0,1,1,0,1,1,0,0,1,1,1,1,0
Monmouth Kitchen,4.5,0.7211120136822641,$$ - $$$,False,51.514076,-0.127036,False,False,1958,30.0,41.0,92.0,302.0,1493.0,0.0,4,1,0,0,0,1,0,0,0,0,0,1,0,0,1,0,0,0,0,0,0,1,0,1,1,0,0,1,0,1,1,0,0,0,1,1,1,1
The Portrait Restaurant By Richard Corrigan ,4.5,0.7211120136822641,$$ - $$$,False,51.509224,-0.12759,False,False,114,3.0,4.0,11.0,20.0,76.0,0.0,2,0,0,0,0,0,0,0,0,0,0,1,0,0,0,0,0,1,0,0,0,1,0,1,1,0,0,1,0,1,1,0,0,0,1,1,1,0
The Ship - Wandsworth,4.0,-0.32814924561338926,$$ - $$$,False,51.463654,-0.188055,False,False,572,53.0,40.0,56.0,154.0,269.0,0.0,4,0,0,0,0,0,0,0,0,0,1,0,0,0,0,0,0,1,0,0,0,0,0,0,1,0,0,1,0,1,1,0,0,0,1,1,1,0
Grounded,4.5,0.7211120136822641,$$ - $$$,False,51.516373,-0.069304,False,False,409,21.0,12.0,13.0,76.0,287.0,0.0,3,0,0,0,1,0,0,0,0,0,0,0,0,0,0,0,1,1,0,0,0,1,0,1,1,0,0,1,0,1,1,0,0,0,0,0,1,0
German Gymnasium Grand Café & Restaurant,4.0,-0.32814924561338926,$$ - $$$,False,51.53242,-0.125268,False,False,3089,140.0,193.0,427.0,862.0,1468.0,0.0,5,0,0,0,0,0,0,1,0,0,0,1,0,0,0,0,0,0,0,0,0,0,0,1,1,0,0,1,0,1,1,0,0,1,1,1,1,0
St. John,4.0,-0.32814924561338926,$$ - $$$,False,51.52047,-0.101481,False,False,1217,61.0,97.0,154.0,324.0,581.0,0.0,2,0,0,0,0,0,0,0,0,0,0,1,0,0,0,0,0,1,0,0,0,0,0,1,0,0,0,0,0,0,1,0,0,0,1,1,1,0
Faros Oxford Circus,5.0,1.7703732729779174,$$ - $$$,True,51.516567,-0.140969,False,False,211,1.0,1.0,3.0,12.0,194.0,0.0,1,1,0,0,0,0,0,0,0,0,0,0,0,0,0,0,0,0,0,0,0,1,0,1,1,0,1,1,0,1,1,1,0,0,1,1,1,0
Barge East Restaurant,4.5,0.7211120136822641,$$ - $$$,False,51.542187,-0.021024,False,False,865,23.0,16.0,27.0,58.0,741.0,0.0,1,0,0,0,0,0,0,0,0,0,0,0,0,0,0,0,0,1,0,0,0,1,0,1,1,0,0,0,1,1,1,0,1,1,1,1,1,1
Cafe In The Crypt,4.0,-0.32814924561338926,$,False,51.509037,-0.126735,False,False,2461,78.0,115.0,312.0,1074.0,882.0,0.0,4,0,0,0,0,1,0,0,0,0,1,0,0,0,0,0,1,1,0,0,0,1,0,1,1,0,0,1,0,1,1,0,0,0,1,0,1,1
Luciano By Gino D'Acampo,4.0,-0.32814924561338926,$$ - $$$,False,51.512157,-0.11859,False,False,615,69.0,60.0,82.0,53.0,351.0,0.0,7,1,0,0,0,1,0,1,0,0,0,0,0,0,0,0,0,0,0,0,0,0,0,1,0,0,0,1,0,1,1,1,0,1,1,1,1,0
The Blackfriar,4.0,-0.32814924561338926,$$ - $$$,False,51.51213,-0.10371,False,False,1491,62.0,50.0,119.0,546.0,714.0,0.0,3,0,0,0,0,0,0,0,0,0,1,0,0,0,0,0,0,1,0,0,0,0,0,0,1,0,0,0,0,1,1,0,0,1,1,1,1,0
Darwin Brasserie,4.5,0.7211120136822641,$$ - $$$,False,51.511185,-0.083557,False,False,8460,232.0,333.0,662.0,1730.0,5506.0,0.0,2,0,0,0,0,0,0,0,0,0,0,1,0,0,0,0,0,1,0,0,0,1,0,1,1,0,0,0,0,1,1,0,0,0,1,1,1,1
Kitty Hawk Rooftop Bar & Restaurant,5.0,1.7703732729779174,$$ - $$$,False,51.509315,-0.126847,False,False,39,0.0,1.0,1.0,0.0,37.0,0.0,1,0,0,0,0,0,0,0,0,0,0,0,0,0,0,0,0,1,0,0,0,0,0,0,0,1,0,1,0,1,1,1,0,0,1,1,1,0
Fenchurch Restaurant,4.5,0.7211120136822641,$$$$,False,51.511215,-0.08355,True,False,1695,76.0,88.0,161.0,349.0,1021.0,0.0,2,0,0,0,0,0,0,0,0,0,0,1,0,0,0,0,0,1,0,0,0,1,0,1,1,0,0,1,0,1,1,0,0,0,1,1,1,1
The Print House at Jim & Tonic East,4.0,-0.32814924561338926,$$ - $$$,False,51.53238,-0.008933,False,False,107,13.0,12.0,5.0,15.0,62.0,0.0,3,0,0,0,0,0,0,0,0,0,0,1,1,0,0,0,1,0,0,0,0,0,0,0,0,1,0,1,1,1,0,0,0,0,1,1,1,1
"The Red Lion, Parliament Street",4.0,-0.32814924561338926,$$ - $$$,False,51.502056,-0.125642,False,False,1673,118.0,48.0,179.0,664.0,664.0,0.0,4,0,0,0,0,0,0,0,0,0,1,0,0,0,0,0,0,1,0,0,0,0,0,0,1,0,0,1,0,0,1,0,0,0,1,1,1,0
Delamina EAST,4.5,0.7211120136822641,$$ - $$$,False,51.52119,-0.07554,True,False,465,7.0,9.0,22.0,93.0,334.0,0.0,4,0,0,0,1,1,1,0,0,0,0,0,0,0,0,0,0,0,0,0,0,1,0,1,1,0,1,1,0,1,1,0,0,0,1,1,1,0
El Pirata of Mayfair,4.5,0.7211120136822641,$$ - $$$,False,51.505146,-0.148217,True,False,1066,28.0,37.0,100.0,351.0,550.0,0.0,3,0,0,0,0,1,0,0,0,0,0,1,0,0,0,0,0,0,0,0,0,1,0,1,1,0,0,0,0,0,1,0,0,0,1,1,1,0
Fallow St James's,4.0,-0.32814924561338926,$$ - $$$,False,51.50941,-0.132784,False,False,506,33.0,38.0,54.0,66.0,316.0,0.0,1,0,0,0,0,0,0,0,0,0,0,0,0,0,0,0,0,1,0,0,0,0,0,1,1,0,0,0,0,0,1,0,0,0,1,1,1,0
Tattu London,4.5,0.7211120136822641,$$$$,False,51.515617,-0.129925,False,True,2221,54.0,46.0,51.0,140.0,1930.0,0.0,2,0,0,1,0,0,0,0,0,0,0,0,0,1,0,0,0,0,0,0,0,1,0,1,1,0,0,1,0,1,1,0,0,1,1,1,1,0
Candella,4.5,0.7211120136822641,$$ - $$$,False,51.50408,-0.191919,False,False,237,16.0,5.0,18.0,42.0,156.0,0.0,2,0,0,0,0,0,0,0,0,0,0,0,0,0,0,0,1,1,0,0,0,1,0,0,1,0,0,0,0,0,1,0,0,0,0,1,1,0
Bar + Block Steakhouse London Kings Cross,4.5,0.7211120136822641,$$ - $$$,False,51.531868,-0.122159,False,False,1508,69.0,77.0,95.0,239.0,1028.0,0.0,2,0,0,0,0,1,0,0,0,0,0,0,0,0,0,0,0,0,0,0,0,0,0,1,1,0,0,1,0,1,1,0,0,0,1,1,1,0
Fitzrovia,4.5,0.7211120136822641,$$ - $$$,True,51.5198,-0.134695,False,False,250,10.0,10.0,14.0,40.0,176.0,0.0,3,0,0,0,0,0,0,0,0,0,1,0,0,0,0,0,0,1,0,0,0,0,0,1,1,0,1,1,0,1,1,1,0,0,1,1,1,1
The India 3 - Best of the City,5.0,1.7703732729779174,$$ - $$$,False,51.51034,-0.083409,False,True,313,1.0,6.0,6.0,31.0,269.0,0.0,1,0,0,0,0,0,0,0,1,0,0,0,0,0,0,0,0,0,0,0,0,1,0,1,1,0,0,0,0,0,0,0,0,0,1,1,1,0
Mango Indian,4.5,0.7211120136822641,$$ - $$$,False,51.505028,-0.092887,False,False,616,31.0,18.0,40.0,143.0,384.0,0.0,2,0,0,0,0,0,0,0,1,0,0,0,0,1,0,0,0,0,0,0,0,1,0,1,1,0,1,1,0,0,1,0,0,1,1,1,1,0
Cacio & Pepe,4.5,0.7211120136822641,$$ - $$$,False,51.491188,-0.139249,False,False,536,12.0,17.0,39.0,127.0,341.0,0.0,6,1,0,0,0,1,0,0,0,0,0,1,0,0,0,0,0,0,0,0,0,1,0,1,1,0,0,1,0,1,1,0,0,0,1,1,1,0
Ciao Bella Restaurant,4.0,-0.32814924561338926,$$ - $$$,False,51.52293,-0.11913,False,False,1447,70.0,64.0,133.0,431.0,749.0,0.0,4,1,0,0,0,1,0,0,0,0,0,1,1,0,0,0,0,0,0,0,0,1,0,1,1,0,0,0,0,1,1,0,0,0,1,1,1,1
Palm Court Brasserie,4.5,0.7211120136822641,$$ - $$$,False,51.51184,-0.1242,False,False,3102,65.0,106.0,222.0,884.0,1825.0,0.0,3,0,0,0,0,0,0,1,0,0,0,1,0,0,0,0,0,0,1,0,0,1,0,1,1,0,0,1,0,1,1,0,0,0,1,1,1,1
Forty Dean Street,4.0,-0.32814924561338926,$$ - $$$,True,51.51335,-0.132207,False,True,728,58.0,46.0,66.0,220.0,338.0,0.0,1,1,0,0,0,0,0,0,0,0,0,0,0,0,0,0,0,0,0,0,0,1,0,1,1,0,0,0,0,0,1,0,0,0,1,1,1,0
Jamie Oliver Catherine St,4.0,-0.32814924561338926,$$ - $$$,False,51.512615,-0.120114,False,False,212,15.0,40.0,30.0,25.0,103.0,0.0,2,1,0,0,0,0,0,0,0,0,0,0,0,0,0,0,0,1,0,0,0,0,0,0,1,0,0,1,0,0,1,1,0,0,1,1,1,0
Bustronome London,5.0,1.7703732729779174,$$$$,False,51.50806,-0.12141,False,True,522,6.0,2.0,9.0,34.0,472.0,0.0,6,0,0,0,1,0,0,1,0,0,0,1,0,0,0,0,0,1,1,0,0,1,0,1,1,0,0,0,0,0,1,0,0,1,1,1,1,0
BOKAN 38 Bar,4.0,-0.32814924561338926,$$ - $$$,False,51.501186,-0.023297,False,False,196,19.0,18.0,9.0,20.0,130.0,0.0,3,0,0,0,0,0,0,0,0,0,1,1,0,0,0,0,0,1,0,0,0,0,0,0,0,1,0,1,0,1,1,0,0,0,1,1,1,0
Lemonia Greek,4.0,-0.32814924561338926,$$ - $$$,False,51.541645,-0.156916,False,False,1108,53.0,74.0,126.0,359.0,496.0,0.0,2,0,0,0,0,1,0,0,0,0,0,1,0,0,0,0,0,0,0,0,0,1,0,1,1,0,0,0,0,1,1,0,0,0,1,1,1,0
Opera Tavern,4.5,0.7211120136822641,$$ - $$$,False,51.51258,-0.120274,False,False,1298,31.0,41.0,128.0,375.0,723.0,0.0,4,0,0,0,0,1,0,0,0,0,0,1,0,0,0,0,0,0,0,0,0,1,0,1,1,0,0,1,0,0,1,0,0,0,1,1,1,0
Smokestak,4.5,0.7211120136822641,$$ - $$$,False,51.523746,-0.072912,False,False,876,40.0,46.0,78.0,172.0,540.0,1.0,1,0,1,0,0,0,0,0,0,0,0,0,0,0,0,0,0,0,0,0,0,0,0,1,0,0,0,0,0,1,1,0,0,0,1,1,1,0
Bill's London Bridge,4.0,-0.32814924561338926,$$ - $$$,False,51.50697,-0.091532,False,False,1273,60.0,72.0,125.0,307.0,712.0,0.0,1,0,0,0,0,0,0,0,0,0,0,0,0,0,0,0,0,1,0,0,0,1,0,1,1,0,0,1,1,1,1,0,0,1,1,1,1,0
Trullo,4.0,-0.32814924561338926,$$ - $$$,False,51.546246,-0.101685,False,False,671,24.0,59.0,75.0,170.0,343.0,1.0,2,1,0,0,0,0,0,0,0,0,0,1,0,0,0,0,0,0,0,0,0,0,0,1,1,0,0,0,0,0,1,0,0,0,1,1,1,0
The Ivy Tower Bridge,3.5,-1.3774105049090426,$$ - $$$,False,51.504078,-0.07692,False,False,2024,241.0,249.0,278.0,382.0,874.0,0.0,3,0,0,0,0,0,0,0,0,0,0,1,0,0,0,0,0,1,1,0,0,1,0,1,1,0,0,1,0,1,1,0,0,1,1,1,1,0
Cicchetti,4.5,0.7211120136822641,$$ - $$$,False,51.509468,-0.135013,True,False,3885,173.0,172.0,296.0,910.0,2334.0,0.0,5,1,0,0,0,0,0,0,0,0,0,0,0,0,0,0,0,0,0,0,0,1,0,1,1,0,0,1,0,1,1,0,0,1,1,1,1,0
Sen Viet,4.5,0.7211120136822641,$,False,51.529163,-0.11584,False,False,724,18.0,22.0,36.0,216.0,432.0,0.0,3,0,0,0,1,0,0,0,0,0,0,0,0,1,0,0,0,0,0,0,0,1,0,1,1,0,0,0,0,0,0,0,0,0,1,1,1,0
The Italian Greyhound,4.5,0.7211120136822641,$$ - $$$,False,51.514416,-0.161126,False,False,672,16.0,24.0,58.0,167.0,407.0,0.0,3,1,0,0,0,0,0,0,0,0,0,0,0,0,0,0,0,0,0,0,0,1,0,1,1,0,0,1,0,1,1,0,0,0,1,1,1,0
Aviary,4.0,-0.32814924561338926,$$ - $$$,False,51.52158,-0.085648,False,False,864,120.0,73.0,91.0,127.0,453.0,0.0,3,0,0,0,0,0,0,0,0,0,1,1,0,0,0,0,0,1,0,0,0,0,0,1,1,0,0,1,0,1,1,0,0,1,1,1,1,0
Victoria Taps,4.5,0.7211120136822641,$$ - $$$,False,51.493633,-0.141778,False,False,176,7.0,5.0,6.0,13.0,145.0,0.0,4,0,0,0,0,0,0,0,0,0,1,0,0,0,0,0,0,1,0,0,0,0,0,0,1,0,0,0,0,0,1,0,0,0,1,1,1,1
Sherlock Holmes,3.5,-1.3774105049090426,$$ - $$$,False,51.50735,-0.125216,False,False,3075,296.0,205.0,489.0,1143.0,944.0,0.0,3,0,0,0,0,0,0,0,0,0,1,0,0,0,0,0,0,1,0,0,0,0,0,0,1,0,0,1,1,1,1,1,0,0,1,1,1,0
Ambassadors Clubhouse,4.0,-0.32814924561338926,$$$$,False,51.5111,-0.139792,False,False,44,6.0,2.0,5.0,7.0,24.0,1.0,2,0,0,0,0,0,0,0,1,0,0,0,0,1,0,0,0,0,0,0,0,1,0,0,1,0,0,1,0,0,1,0,0,0,1,1,1,1
Lobos,4.5,0.7211120136822641,$$ - $$$,False,51.50558,-0.089181,False,False,876,16.0,29.0,75.0,233.0,523.0,0.0,4,0,0,0,0,1,0,0,0,0,1,1,0,0,0,0,0,0,0,0,0,0,0,1,1,0,0,1,0,1,1,0,0,0,1,1,1,0
The Breakfast Club,4.0,-0.32814924561338926,$$ - $$$,False,51.518414,-0.078734,False,False,1317,70.0,87.0,136.0,394.0,630.0,0.0,4,0,1,0,0,0,0,0,0,0,0,0,0,0,0,0,1,1,0,1,0,1,0,1,1,0,0,1,0,1,1,0,0,0,1,1,1,0
Paladar,5.0,1.7703732729779174,$$ - $$$,False,51.498173,-0.104317,True,True,1242,8.0,21.0,44.0,84.0,1086.0,0.0,5,0,1,0,0,0,0,1,0,0,1,0,0,0,1,0,0,0,0,0,0,1,0,1,1,0,0,1,1,1,1,1,0,1,1,1,1,0
Las Iguanas,4.0,-0.32814924561338926,$$ - $$$,False,51.505573,-0.117588,False,False,2714,165.0,159.0,286.0,639.0,1465.0,0.0,2,0,0,0,0,0,0,0,0,0,1,0,0,0,1,0,0,0,0,0,0,1,0,0,1,0,0,1,0,1,1,0,0,0,1,1,1,1
Ave Mario,4.0,-0.32814924561338926,$$ - $$$,False,51.51089,-0.123961,False,False,1142,112.0,103.0,132.0,138.0,656.0,0.0,1,1,0,0,0,0,0,0,0,0,0,0,0,0,0,0,0,0,0,0,0,1,0,0,1,0,0,0,0,0,0,0,0,0,1,1,1,0
Harry's Victoria,4.5,0.7211120136822641,$$ - $$$,False,51.495934,-0.14585,False,False,86,8.0,4.0,8.0,4.0,62.0,0.0,2,1,0,0,0,0,0,0,0,0,0,1,0,0,0,0,0,0,0,0,0,1,0,0,1,0,0,0,0,0,0,0,0,0,1,1,1,0
Granary Square Brasserie,4.0,-0.32814924561338926,$$ - $$$,False,51.535767,-0.125768,False,False,1245,111.0,114.0,163.0,243.0,614.0,0.0,2,0,0,0,0,0,0,0,0,0,0,1,0,0,0,0,0,1,0,0,0,1,0,1,1,0,0,1,0,1,1,0,0,1,1,1,1,0
Hera Restaurant,5.0,1.7703732729779174,$$ - $$$,False,51.542446,-0.012019,False,False,112,1.0,2.0,0.0,4.0,105.0,0.0,3,0,0,0,0,0,0,0,0,0,1,1,0,0,0,0,0,0,0,0,0,1,0,0,1,0,0,0,0,0,1,0,0,0,1,1,1,0
Red Lion,4.5,0.7211120136822641,$$ - $$$,True,51.51884,-0.085982,False,False,89,5.0,0.0,12.0,15.0,57.0,0.0,4,0,0,0,0,1,0,0,0,0,1,0,0,0,0,0,0,1,0,0,0,0,0,0,1,0,1,1,1,0,1,1,0,0,1,1,1,0
Chimichurris,5.0,1.7703732729779174,$$ - $$$,True,51.50062,-0.09897,False,True,187,1.0,1.0,6.0,23.0,156.0,0.0,2,0,1,0,0,1,0,0,0,0,0,0,0,0,0,0,0,0,0,0,0,0,0,1,0,0,0,0,0,1,0,0,0,0,1,1,1,0
Cafe de Provence,5.0,1.7703732729779174,$,False,51.515778,-0.12385,False,False,566,7.0,1.0,10.0,33.0,516.0,0.0,4,0,0,0,1,0,0,0,0,0,0,1,0,0,0,0,1,1,0,0,0,1,0,1,1,0,0,1,0,0,0,0,0,0,0,0,1,0
Casa do Frango London Bridge,4.0,-0.32814924561338926,$$ - $$$,False,51.50489,-0.092748,False,False,595,35.0,50.0,53.0,121.0,336.0,0.0,2,0,0,0,0,1,0,0,0,0,0,1,0,0,0,0,0,0,0,0,0,0,0,1,0,0,0,0,0,0,0,0,0,1,1,1,1,0
Strada Southbank,4.0,-0.32814924561338926,$$ - $$$,False,51.505886,-0.117366,False,False,1655,101.0,122.0,238.0,451.0,745.0,0.0,4,1,0,0,0,0,0,0,0,0,0,0,1,0,0,0,0,0,0,0,0,1,0,1,1,0,0,1,0,1,1,0,0,0,1,1,1,0
Da Mario Kensington,4.5,0.7211120136822641,$$ - $$$,False,51.49871,-0.183549,False,False,1785,84.0,53.0,129.0,443.0,1076.0,0.0,4,1,0,0,0,0,0,0,0,0,0,0,0,0,0,0,0,0,0,0,0,1,0,1,1,0,1,0,0,1,1,0,0,0,1,1,1,0
Mimos Cafe Bar,4.5,0.7211120136822641,$,False,51.515167,-0.173922,True,False,1006,26.0,33.0,72.0,347.0,528.0,0.0,3,1,0,0,0,0,0,0,0,0,0,1,0,0,0,0,1,0,0,0,0,1,0,1,1,0,0,0,0,1,1,0,0,0,1,0,1,1
The Rosebery,4.5,0.7211120136822641,$$$$,False,51.502182,-0.15955,False,False,437,8.0,22.0,30.0,54.0,323.0,0.0,3,0,0,0,0,0,0,0,0,0,1,0,0,0,0,0,1,1,0,0,0,1,0,1,1,0,1,1,0,1,0,0,0,0,1,1,1,0
"The Flask, Hampstead",4.5,0.7211120136822641,$$ - $$$,False,51.55663,-0.177331,False,False,566,24.0,28.0,48.0,148.0,318.0,0.0,3,0,0,0,0,0,0,0,0,0,1,0,0,0,0,0,0,1,0,0,0,1,0,1,1,0,0,1,0,1,1,0,0,0,1,1,1,1
The Breakfast Club,4.0,-0.32814924561338926,$$ - $$$,False,51.50461,-0.091346,True,False,1155,78.0,80.0,147.0,336.0,514.0,0.0,3,0,1,0,0,0,0,0,0,0,0,0,0,0,0,0,1,1,0,0,0,1,0,1,1,0,0,1,0,1,1,0,0,0,1,0,1,0
Bread Street Kitchen & Bar - Southwark,4.0,-0.32814924561338926,$$ - $$$,False,51.503544,-0.101269,False,False,1645,93.0,151.0,247.0,409.0,745.0,0.0,4,0,0,0,0,0,0,1,0,0,1,1,0,0,0,0,0,1,0,0,0,1,0,1,1,0,0,1,0,1,1,0,0,0,1,1,1,0
Amalfi Ristorante,4.0,-0.32814924561338926,$$ - $$$,False,51.514812,-0.141114,False,False,265,25.0,20.0,20.0,29.0,171.0,0.0,2,1,0,0,0,0,0,0,0,0,0,0,1,0,0,0,0,0,0,0,0,1,0,1,1,0,0,0,0,0,0,0,0,0,1,1,1,0
Mihbaj,4.5,0.7211120136822641,$$ - $$$,False,51.51616,-0.174384,False,False,281,6.0,4.0,9.0,51.0,211.0,0.0,1,0,0,0,0,0,1,0,0,0,0,0,0,0,0,0,0,0,0,0,0,1,0,1,1,0,0,1,0,0,1,1,0,0,0,1,1,0
Bubala,4.5,0.7211120136822641,$$ - $$$,False,51.51785,-0.074139,False,False,166,7.0,7.0,12.0,23.0,117.0,1.0,2,0,0,0,0,1,1,0,0,0,0,0,0,0,0,0,0,0,0,0,0,1,0,1,1,0,0,0,0,0,0,0,0,0,1,1,1,0
Yatri Indian Restaurant Euston,4.5,0.7211120136822641,$$ - $$$,False,51.528503,-0.12902,True,False,252,12.0,5.0,14.0,27.0,194.0,0.0,2,0,0,0,0,0,0,0,1,0,0,0,0,1,0,0,0,0,0,0,0,1,0,1,1,0,0,1,0,1,1,0,0,0,1,1,1,0
Hobson's Fish & Chips Charing Cross,4.5,0.7211120136822641,$$ - $$$,False,51.50836,-0.124132,True,False,271,10.0,7.0,8.0,44.0,202.0,0.0,6,0,0,0,0,1,0,0,0,0,1,0,0,0,0,0,0,1,0,1,0,0,0,0,0,1,1,1,0,1,1,0,0,0,1,1,1,0
Bengal Village - Best of Brick Lane,5.0,1.7703732729779174,$$ - $$$,False,51.520134,-0.071935,False,True,2514,62.0,39.0,61.0,135.0,2219.0,0.0,4,0,0,0,0,0,0,0,1,0,0,0,0,1,0,0,0,0,0,0,0,1,1,1,1,0,1,0,0,1,1,1,0,0,1,0,1,0
Hot Stone,4.5,0.7211120136822641,$$ - $$$,True,51.53349,-0.110245,False,False,994,50.0,27.0,53.0,170.0,694.0,0.0,3,0,0,0,0,0,0,0,0,0,0,0,0,1,0,1,0,0,0,0,0,1,0,1,1,0,0,1,0,0,1,0,0,1,1,1,1,0
Bancone Covent Garden,4.5,0.7211120136822641,$$ - $$$,False,51.50956,-0.126409,False,False,737,30.0,39.0,80.0,128.0,460.0,0.0,3,1,0,0,0,1,0,0,0,0,0,1,0,0,0,0,0,0,0,0,0,1,0,1,1,0,0,1,0,0,0,0,0,0,1,1,1,0
Boulevard Brasserie,4.5,0.7211120136822641,$$ - $$$,False,51.512455,-0.121057,False,False,2592,57.0,89.0,249.0,795.0,1402.0,0.0,1,0,0,0,0,0,0,1,0,0,0,0,0,0,0,0,0,0,0,0,0,1,0,1,1,0,0,1,0,1,1,0,0,0,1,1,1,0
Mildreds Camden,4.5,0.7211120136822641,$$ - $$$,False,51.540405,-0.145033,True,False,925,25.0,22.0,67.0,188.0,623.0,0.0,3,0,0,0,0,0,0,1,0,0,0,0,0,0,0,0,0,1,0,0,0,1,0,1,1,0,0,1,1,1,1,0,0,1,1,1,1,0
The Coral Room,4.5,0.7211120136822641,$$ - $$$,False,51.517376,-0.129118,False,False,420,11.0,11.0,24.0,44.0,330.0,0.0,4,0,0,0,1,0,0,1,0,0,1,0,0,0,0,0,1,0,0,0,0,1,0,1,1,0,0,1,0,1,1,0,0,0,1,1,1,0
Leicester Square Kitchen,4.5,0.7211120136822641,$$$$,False,51.509975,-0.129723,False,False,2467,25.0,29.0,66.0,315.0,2032.0,0.0,3,0,0,0,1,0,0,0,0,0,0,0,0,0,1,0,0,0,0,0,0,1,0,1,1,0,0,1,0,1,1,0,0,0,1,1,1,0
Clos Maggiore,4.5,0.7211120136822641,$$$$,False,51.511635,-0.124726,False,True,4381,128.0,107.0,284.0,683.0,3181.0,1.0,3,0,0,0,0,0,0,0,0,0,1,1,0,0,0,0,0,0,1,0,0,1,0,1,1,0,0,0,0,1,1,0,0,0,1,1,1,0
Heliot Steak House,4.5,0.7211120136822641,$$ - $$$,False,51.511387,-0.128762,False,True,2324,41.0,53.0,108.0,431.0,1692.0,0.0,4,0,1,0,0,1,0,1,0,0,0,0,0,0,0,0,0,1,0,0,0,0,0,1,1,0,0,1,0,1,1,1,0,0,1,1,1,1
Stone & Grill,4.0,-0.32814924561338926,$$ - $$$,False,51.49361,-0.141391,False,False,575,33.0,27.0,57.0,150.0,308.0,0.0,5,1,0,0,0,1,0,0,0,0,0,1,1,0,1,0,0,0,0,0,0,1,0,1,1,0,0,0,0,1,1,0,0,0,1,1,1,0
Arabica Borough Market,4.0,-0.32814924561338926,$$ - $$$,False,51.505676,-0.091148,True,False,1021,52.0,63.0,119.0,305.0,482.0,0.0,4,0,0,0,1,1,1,0,0,0,0,0,0,0,0,0,0,0,0,0,0,1,0,1,1,0,1,1,0,1,1,0,0,1,1,1,1,0
Darcie & May Green,4.0,-0.32814924561338926,$$ - $$$,False,51.5188,-0.178083,False,False,397,30.0,24.0,30.0,60.0,253.0,0.0,2,0,0,0,1,0,0,0,0,0,0,1,0,0,0,0,0,0,0,0,0,1,0,1,1,0,0,1,0,0,0,0,0,0,1,1,1,0
Harry's Dolce Vita Knightsbridge,4.0,-0.32814924561338926,$$ - $$$,False,51.498566,-0.161951,False,False,662,74.0,61.0,68.0,117.0,342.0,0.0,5,1,0,0,0,0,0,1,0,0,0,1,0,0,0,0,0,0,0,0,0,1,0,1,1,0,0,1,0,1,0,0,0,1,1,1,1,0
Zeret Kitchen,5.0,1.7703732729779174,$$ - $$$,False,51.478695,-0.094427,False,False,699,4.0,5.0,11.0,85.0,594.0,0.0,2,0,0,0,0,0,0,0,0,0,0,0,0,0,0,0,0,0,0,0,1,1,0,1,1,0,0,0,0,1,1,1,0,0,1,1,1,0
Bill's Soho Restaurant,4.5,0.7211120136822641,$$ - $$$,False,51.51186,-0.135104,False,False,2943,83.0,95.0,248.0,942.0,1578.0,0.0,2,0,0,0,0,0,0,0,0,0,0,1,0,0,0,0,0,1,0,0,0,1,0,1,1,0,0,1,1,1,1,1,0,1,1,0,1,0
Market Brasserie,4.5,0.7211120136822641,$$ - $$$,False,51.503345,-0.000325,False,False,189,3.0,6.0,12.0,39.0,129.0,0.0,4,0,0,0,0,1,0,0,0,0,0,1,0,0,0,0,0,1,0,0,0,1,0,1,1,0,0,1,0,1,0,0,0,0,1,1,1,0
Mildreds Soho,4.5,0.7211120136822641,$$ - $$$,False,51.513046,-0.136365,True,False,2819,70.0,118.0,244.0,695.0,1692.0,0.0,4,0,0,0,1,0,0,1,0,0,0,0,0,0,0,0,0,1,0,0,0,1,0,1,1,0,0,1,1,0,1,0,0,1,1,0,1,0
Museum Tavern,4.0,-0.32814924561338926,$$ - $$$,True,51.518196,-0.12588,False,False,1077,35.0,23.0,97.0,425.0,497.0,0.0,3,0,0,0,0,0,0,0,0,0,1,0,0,0,0,0,0,1,0,0,0,0,0,1,1,0,0,1,1,0,1,1,0,0,1,1,1,0
The Cheese Barge,4.5,0.7211120136822641,$$ - $$$,False,51.519222,-0.179096,False,False,131,6.0,4.0,16.0,28.0,77.0,0.0,1,0,0,0,0,0,0,0,0,0,0,0,0,0,0,0,0,1,0,0,0,0,0,1,1,0,0,0,0,0,0,0,0,0,1,1,1,0
Bocconcino Mayfair,3.5,-1.3774105049090426,$$ - $$$,False,51.508865,-0.143599,False,False,760,79.0,76.0,117.0,175.0,318.0,0.0,7,1,0,0,0,1,0,1,0,0,0,1,1,0,0,0,0,0,0,0,0,1,0,1,1,0,0,1,0,1,1,0,0,0,1,1,1,1
Bubala Soho,4.5,0.7211120136822641,$$ - $$$,False,51.514763,-0.137023,False,False,26,0.0,2.0,0.0,4.0,20.0,0.0,1,0,0,0,0,0,1,0,0,0,0,0,0,0,0,0,0,0,0,0,0,1,0,0,1,0,0,0,0,0,1,0,0,0,1,1,1,0
Barrafina Drury Lane,4.5,0.7211120136822641,$$ - $$$,False,51.51438,-0.121806,False,False,494,24.0,20.0,28.0,88.0,336.0,0.0,2,0,0,0,0,1,0,0,0,0,0,1,0,0,0,0,0,0,0,0,0,1,0,1,1,0,0,0,0,0,1,0,0,0,1,1,0,0
Yi-Ban,3.5,-1.3774105049090426,$$ - $$$,False,51.50775,0.041886,False,False,746,92.0,62.0,111.0,235.0,246.0,0.0,5,0,0,1,0,0,0,0,0,0,0,0,0,1,0,0,0,0,0,0,0,0,0,0,1,0,1,0,0,1,1,0,1,0,1,1,1,1
Fazenda Rodizio Bar & Grill Bishopsgate,4.0,-0.32814924561338926,$$$$,False,51.51543,-0.080496,False,False,69,7.0,3.0,5.0,8.0,46.0,0.0,5,0,1,0,0,1,0,0,0,0,0,0,0,0,1,0,0,0,0,0,0,0,0,0,0,1,0,0,0,0,1,1,0,0,1,1,1,0
Blacklock Soho,4.5,0.7211120136822641,$$ - $$$,False,51.51174,-0.134694,False,False,2033,33.0,41.0,100.0,329.0,1530.0,0.0,3,0,1,0,0,1,0,0,0,0,0,0,0,0,0,0,0,1,0,0,0,0,0,1,0,0,0,1,0,1,1,0,0,0,1,1,1,0
El Rancho De Lalo,4.5,0.7211120136822641,$,False,51.4622,-0.11166,False,False,160,3.0,5.0,10.0,34.0,108.0,0.0,2,0,0,0,0,0,0,0,0,0,0,0,0,0,1,0,0,0,0,0,0,0,0,0,1,0,0,0,0,1,0,0,0,0,1,1,1,0
Mosaic,5.0,1.7703732729779174,$$ - $$$,False,51.51097,-0.095245,False,False,112,0.0,1.0,0.0,5.0,106.0,0.0,2,0,0,0,1,0,0,1,0,0,0,0,0,0,0,0,0,0,0,0,0,1,0,1,1,0,0,1,0,1,1,1,0,1,1,1,1,0
Cottons,4.0,-0.32814924561338926,$$ - $$$,False,51.543175,-0.149637,False,False,528,67.0,38.0,38.0,103.0,282.0,0.0,2,0,0,0,0,0,0,0,0,0,0,0,0,0,1,0,0,0,0,0,0,1,0,0,1,0,0,1,0,0,0,0,0,0,1,1,1,1
ROKA Canary Wharf,4.5,0.7211120136822641,$$$$,False,51.504887,-0.018824,False,False,1364,42.0,55.0,100.0,388.0,779.0,0.0,5,0,0,0,0,1,0,0,0,0,0,0,0,1,0,1,0,0,0,0,0,1,0,0,1,0,0,1,0,1,1,0,0,1,1,1,1,0
The Rose,4.0,-0.32814924561338926,$$ - $$$,False,51.489845,-0.122722,False,False,604,32.0,35.0,85.0,223.0,229.0,0.0,5,0,0,0,0,1,0,0,0,0,1,1,0,0,0,0,0,1,0,0,0,1,0,1,1,0,0,1,0,1,1,0,0,0,1,1,1,0
The Mayflower Pub,4.5,0.7211120136822641,$$ - $$$,False,51.501793,-0.053592,False,False,1189,37.0,30.0,93.0,388.0,641.0,0.0,3,0,0,0,0,0,0,0,0,0,1,0,0,0,0,0,0,1,0,0,0,1,0,1,1,0,0,1,0,1,1,0,0,0,1,1,1,0
La Tagliata - Italian Kitchen ,4.5,0.7211120136822641,$$ - $$$,False,51.517887,-0.077518,True,False,379,9.0,11.0,26.0,98.0,235.0,0.0,1,1,0,0,0,0,0,0,0,0,0,0,0,0,0,0,0,0,0,0,0,1,0,1,1,0,0,1,1,0,1,0,0,0,1,1,1,0
The Wilmington,4.5,0.7211120136822641,$$ - $$$,False,51.526096,-0.110187,False,False,869,18.0,8.0,48.0,174.0,621.0,0.0,2,0,0,0,0,0,0,0,0,0,1,0,0,0,0,0,0,1,0,0,0,1,0,1,1,0,1,1,0,1,1,0,0,0,1,1,1,0
Franco Manca,5.0,1.7703732729779174,$$ - $$$,False,51.502563,-0.108321,True,False,242,3.0,4.0,7.0,22.0,206.0,0.0,5,1,0,0,0,0,0,0,0,0,0,0,1,0,0,0,0,0,0,0,0,1,0,1,1,0,0,0,0,1,1,0,0,0,1,1,1,0
Roti King,4.0,-0.32814924561338926,$,False,51.528934,-0.132074,False,False,828,67.0,41.0,76.0,258.0,386.0,0.0,4,0,0,0,0,0,0,0,1,0,0,0,0,1,0,0,0,0,0,0,0,1,1,0,1,0,0,1,0,0,1,1,0,0,1,0,1,0
Sael London,4.5,0.7211120136822641,$$ - $$$,False,51.50888,-0.133393,False,False,28,0.0,1.0,7.0,3.0,17.0,0.0,2,0,0,0,0,0,0,0,0,0,0,1,0,0,0,0,0,1,0,0,0,0,0,0,0,1,0,0,0,0,0,0,0,0,0,1,1,0
Noble Rot,4.0,-0.32814924561338926,$$ - $$$,False,51.521873,-0.118691,False,False,420,18.0,13.0,47.0,121.0,221.0,1.0,1,0,0,0,0,0,0,0,0,0,1,0,0,0,0,0,0,0,0,0,0,0,0,0,1,0,0,1,0,0,1,0,0,0,1,1,1,0
Jamon Jamon Soho,4.5,0.7211120136822641,$$ - $$$,False,51.513885,-0.129152,False,True,1809,89.0,76.0,156.0,377.0,1111.0,0.0,5,0,0,0,0,1,0,1,0,0,0,1,0,0,0,0,0,0,0,0,0,1,0,1,1,0,0,1,0,1,1,0,0,0,1,1,1,0
Il Posto,4.0,-0.32814924561338926,$$ - $$$,False,51.49567,-0.142041,True,False,1409,60.0,68.0,121.0,397.0,763.0,0.0,4,1,0,0,0,1,0,0,0,0,0,1,1,0,0,0,0,0,0,0,0,1,0,1,1,0,0,0,0,1,1,0,0,0,1,1,1,0
The Harwood Arms,4.5,0.7211120136822641,$$ - $$$,False,51.482887,-0.196457,False,False,1203,34.0,48.0,130.0,275.0,716.0,1.0,2,0,0,0,0,0,0,0,0,0,1,0,0,0,0,0,0,1,0,0,0,0,0,1,1,0,1,0,0,1,1,0,0,0,1,1,1,0
Oita Soho,4.5,0.7211120136822641,$$ - $$$,False,51.512093,-0.12996,True,False,53,4.0,1.0,3.0,8.0,38.0,0.0,3,0,0,0,0,1,0,0,0,0,0,0,0,0,0,1,0,0,0,0,0,0,0,0,1,0,1,1,0,1,1,1,0,1,1,1,1,0
Wahaca Covent Garden,4.5,0.7211120136822641,$$ - $$$,False,51.5103,-0.124559,False,False,2658,68.0,90.0,236.0,853.0,1411.0,0.0,1,0,0,0,0,0,0,0,0,0,0,0,0,0,1,0,0,0,0,0,0,1,0,1,1,0,0,1,0,1,1,0,0,0,1,1,1,0
Lord Wargrave,4.5,0.7211120136822641,$$ - $$$,False,51.518105,-0.165795,True,False,707,36.0,12.0,29.0,157.0,474.0,0.0,4,0,1,0,0,0,0,0,0,0,1,0,0,0,0,0,0,1,0,0,0,1,0,1,1,0,0,1,0,1,1,0,0,0,1,1,1,0
Sarastro Restaurant,4.0,-0.32814924561338926,$$ - $$$,False,51.51371,-0.119884,False,False,2687,162.0,148.0,304.0,700.0,1374.0,0.0,3,0,0,0,0,1,1,0,0,0,0,1,0,0,0,0,0,0,0,0,0,1,0,1,1,0,0,0,0,0,1,0,0,0,1,1,1,1
Oriole Bar,4.5,0.7211120136822641,$$ - $$$,False,51.512623,-0.126429,False,False,281,10.0,11.0,13.0,41.0,206.0,0.0,1,0,0,0,0,0,0,0,0,0,1,0,0,0,0,0,0,0,0,0,0,0,0,0,0,1,0,1,0,0,1,0,0,0,1,1,1,1
Franco's,4.5,0.7211120136822641,$$$$,False,51.507507,-0.139662,False,True,818,24.0,32.0,88.0,243.0,431.0,1.0,2,1,0,0,0,0,0,0,0,0,0,1,0,0,0,0,0,0,0,0,0,1,0,1,1,0,0,1,0,1,1,0,0,0,1,1,1,0
"The Victoria, Paddington",4.5,0.7211120136822641,$$ - $$$,False,51.513474,-0.171258,False,False,1266,16.0,20.0,59.0,356.0,817.0,0.0,4,0,0,0,0,0,0,0,0,0,1,0,0,0,0,0,0,1,0,0,0,1,0,1,1,0,1,1,0,0,1,1,0,0,1,1,1,0
Garrick Arms,4.0,-0.32814924561338926,$$ - $$$,True,51.510338,-0.128199,False,False,597,45.0,31.0,68.0,150.0,303.0,0.0,3,0,0,0,0,0,0,0,0,0,1,0,0,0,0,0,0,1,0,0,0,0,0,0,0,1,0,1,1,0,1,1,0,0,1,1,1,1
Masons Arms,4.5,0.7211120136822641,$,True,51.512768,-0.142501,False,False,175,3.0,3.0,4.0,28.0,137.0,0.0,3,0,0,0,0,0,0,0,0,0,1,0,0,0,0,0,0,1,0,0,0,0,0,0,0,1,1,1,1,0,1,0,0,0,1,1,1,0
Locale,4.5,0.7211120136822641,$$ - $$$,False,51.50164,-0.117969,False,False,4141,103.0,128.0,332.0,1057.0,2521.0,0.0,5,1,0,0,0,1,0,0,0,0,0,0,0,0,0,0,0,0,0,0,0,1,0,1,1,0,0,1,0,1,1,0,0,0,1,1,1,0
Giovanni's,4.0,-0.32814924561338926,$$ - $$$,False,51.5111,-0.126027,False,False,902,96.0,62.0,65.0,117.0,562.0,0.0,5,1,0,0,0,1,0,0,0,0,0,1,0,0,0,0,0,0,0,0,0,1,0,1,1,0,0,0,0,0,1,0,0,0,1,1,1,0
Flat Iron Tottenham Court Road,4.5,0.7211120136822641,$$ - $$$,False,51.51515,-0.129594,False,False,1963,23.0,27.0,62.0,469.0,1382.0,0.0,2,0,0,0,0,1,0,0,0,0,0,0,0,0,0,0,0,1,0,0,0,0,0,1,0,0,0,1,0,1,1,0,0,0,1,0,1,0
Savoy Grill,4.0,-0.32814924561338926,$$$$,False,51.510593,-0.120553,False,False,6515,250.0,431.0,873.0,1303.0,3658.0,1.0,3,0,0,0,0,1,0,0,0,0,0,1,0,0,0,0,0,1,0,0,0,1,0,1,1,0,1,0,0,1,1,0,0,0,1,1,1,1
ROVI,4.5,0.7211120136822641,$$ - $$$,False,51.517628,-0.138656,False,False,591,14.0,34.0,71.0,122.0,350.0,0.0,4,0,0,0,0,1,1,1,0,0,0,0,0,0,0,0,0,0,0,0,0,1,0,1,1,0,0,1,0,1,1,1,0,1,1,1,1,0
New Loon Fung,4.0,-0.32814924561338926,$$ - $$$,False,51.511917,-0.130379,False,False,671,50.0,38.0,72.0,249.0,262.0,0.0,5,0,0,1,0,0,0,0,0,0,0,0,0,1,0,0,0,0,0,0,0,1,0,1,1,0,0,0,0,1,1,0,0,0,1,1,1,0
Tamarind Kitchen,4.5,0.7211120136822641,$$ - $$$,False,51.514717,-0.135005,False,False,607,21.0,29.0,50.0,123.0,384.0,1.0,1,0,0,0,0,0,0,0,1,0,0,0,0,0,0,0,0,0,0,0,0,1,0,1,1,0,0,1,0,1,1,0,0,0,1,1,1,0
Satay House,4.0,-0.32814924561338926,$$ - $$$,False,51.517666,-0.169394,True,False,568,15.0,27.0,65.0,220.0,242.0,0.0,2,0,0,0,0,0,0,0,0,0,0,0,0,1,0,0,0,0,0,0,0,1,1,1,1,0,0,0,0,1,1,0,0,0,1,1,1,0
Bill's Greenwich Restaurant,4.0,-0.32814924561338926,$$ - $$$,False,51.480717,-0.009096,False,False,957,67.0,85.0,106.0,220.0,480.0,0.0,2,0,0,0,0,0,0,0,0,0,0,0,0,0,0,0,1,1,0,0,0,1,0,1,1,0,0,1,1,1,1,0,0,1,1,1,1,0
Flat Iron Covent Garden,4.5,0.7211120136822641,$$ - $$$,False,51.510834,-0.124079,False,False,3902,72.0,75.0,188.0,809.0,2759.0,0.0,2,0,0,0,0,1,0,0,0,0,0,0,0,0,0,0,0,1,0,0,0,0,0,1,0,0,0,1,0,1,1,0,0,0,1,0,1,0
Claridge's Restaurant,4.5,0.7211120136822641,$$$$,False,51.512455,-0.148023,False,False,50,0.0,2.0,5.0,5.0,38.0,0.0,3,0,0,0,0,0,0,0,0,0,1,0,0,0,0,0,0,1,0,0,0,1,0,0,1,0,0,0,0,0,1,0,0,0,1,1,1,0
Bokan 37 Restaurant,4.5,0.7211120136822641,$$$$,False,51.501244,-0.023363,False,False,1036,48.0,50.0,66.0,137.0,735.0,0.0,2,0,0,0,0,0,0,0,0,0,0,1,0,0,0,0,0,1,0,0,0,1,0,1,1,0,0,1,0,1,1,0,0,1,1,1,1,1
Tozi Restaurant & Bar,4.5,0.7211120136822641,$$ - $$$,False,51.494053,-0.141338,False,False,2024,30.0,49.0,118.0,523.0,1304.0,0.0,3,1,0,0,0,1,0,0,0,0,0,1,0,0,0,0,0,0,0,0,0,1,0,1,1,0,0,1,0,1,1,0,0,0,1,1,1,0
Flat Iron Kensington,4.5,0.7211120136822641,$$ - $$$,False,51.501724,-0.189722,False,False,66,2.0,3.0,5.0,6.0,51.0,0.0,2,0,0,0,0,1,0,0,0,0,0,0,0,0,0,0,0,1,0,0,0,0,0,0,0,1,0,0,0,1,1,0,0,0,1,1,1,0
Gold,4.0,-0.32814924561338926,$$ - $$$,False,51.512978,-0.202579,False,False,170,8.0,9.0,25.0,24.0,104.0,0.0,1,0,0,0,0,0,0,0,0,0,0,1,0,0,0,0,0,0,0,0,0,1,0,0,1,0,0,0,0,0,1,0,0,0,1,1,1,0
Riverside Cafe,4.5,0.7211120136822641,$,False,51.495026,-0.121095,False,False,265,7.0,6.0,6.0,40.0,206.0,0.0,3,0,0,0,0,0,0,0,0,0,0,1,0,0,0,0,1,1,0,0,0,1,0,1,1,0,0,0,0,0,1,0,0,0,1,0,1,0
Hard Rock Cafe London Piccadilly Circus,5.0,1.7703732729779174,$$ - $$$,False,51.509956,-0.133717,True,False,4523,55.0,58.0,115.0,370.0,3929.0,0.0,4,0,1,0,0,0,0,0,0,0,0,1,0,0,1,0,0,1,0,0,0,1,0,1,1,0,0,1,0,1,1,1,0,1,1,1,1,1
Fishcotheque,4.5,0.7211120136822641,$,False,51.503918,-0.111721,False,False,2672,51.0,37.0,96.0,435.0,2054.0,0.0,3,0,0,0,0,1,0,0,0,0,0,0,0,0,0,0,0,1,0,1,0,0,0,0,0,1,0,0,0,1,0,0,0,0,0,1,1,0
Thai Taste,4.5,0.7211120136822641,$$ - $$$,False,51.494835,-0.187002,True,False,533,12.0,15.0,41.0,172.0,293.0,0.0,3,0,0,0,1,0,0,0,0,0,0,0,0,1,0,0,0,0,0,0,0,1,0,1,1,0,0,0,0,1,1,0,0,0,1,1,1,0
"Giraffe, Victoria",4.0,-0.32814924561338926,$$ - $$$,False,51.49395,-0.142255,True,False,1196,51.0,39.0,140.0,458.0,508.0,0.0,1,0,0,0,0,0,0,1,0,0,0,0,0,0,0,0,0,0,0,0,0,1,0,1,1,0,0,1,0,1,1,0,0,0,1,1,1,0
Print House Bar & Kitchen,4.0,-0.32814924561338926,$$ - $$$,False,51.532475,-0.008706,False,False,130,4.0,10.0,13.0,32.0,71.0,0.0,3,0,0,0,0,0,0,0,0,0,1,1,0,0,0,0,0,1,0,0,0,0,0,0,1,0,0,1,0,1,0,0,0,0,1,1,1,0
The Italian Cotto,4.0,-0.32814924561338926,$$ - $$$,False,51.498856,-0.112583,False,False,783,90.0,61.0,68.0,184.0,381.0,0.0,4,1,0,0,0,1,0,0,0,0,0,1,1,0,0,0,0,0,0,0,0,1,0,1,1,0,0,0,0,1,1,0,0,0,1,1,1,0
Bill's Hammersmith Restaurant,4.0,-0.32814924561338926,$$ - $$$,False,51.49355,-0.225523,False,False,710,52.0,54.0,96.0,223.0,285.0,0.0,1,0,0,0,0,0,0,0,0,0,0,0,0,0,0,0,0,1,0,0,0,1,0,1,1,0,0,1,1,1,1,0,0,1,1,1,1,0
"The Holly Bush, Hampstead",4.0,-0.32814924561338926,$$ - $$$,False,51.55779,-0.179296,False,False,648,60.0,68.0,49.0,183.0,288.0,0.0,4,0,0,0,0,0,0,0,0,0,1,0,0,0,0,0,0,1,0,0,0,1,0,1,1,0,0,1,0,1,1,0,0,0,1,1,1,0
The Jugged Hare,4.0,-0.32814924561338926,$$ - $$$,False,51.520943,-0.092211,False,False,1487,77.0,120.0,194.0,504.0,592.0,0.0,3,0,0,0,0,0,0,0,0,0,1,0,0,0,0,0,0,1,0,0,0,0,0,0,0,1,0,1,0,1,1,0,0,1,1,1,1,0
Bloomsbury Street Kitchen,5.0,1.7703732729779174,$$ - $$$,False,51.517334,-0.127423,False,False,943,10.0,13.0,25.0,61.0,834.0,0.0,1,0,0,0,0,0,0,0,0,0,0,0,0,0,0,1,0,0,0,0,0,1,0,1,1,0,0,1,0,1,1,0,0,0,1,1,1,1
Perilla,4.5,0.7211120136822641,$$ - $$$,False,51.552326,-0.085954,False,False,164,6.0,5.0,15.0,21.0,117.0,0.0,2,0,0,0,0,0,0,0,0,0,0,1,0,0,0,0,0,1,0,0,0,1,0,0,1,0,0,0,0,1,0,0,0,0,1,1,1,0
Seabird,4.5,0.7211120136822641,$$$$,False,51.50567,-0.104776,False,False,589,39.0,34.0,36.0,58.0,422.0,0.0,5,0,0,0,0,1,0,0,0,0,0,1,0,0,0,0,0,0,0,0,0,0,0,1,0,0,0,1,0,1,1,1,0,1,1,1,1,0
The Old Shades London Pub & Dining,4.5,0.7211120136822641,$$ - $$$,False,51.50647,-0.127036,False,False,1085,45.0,35.0,69.0,226.0,711.0,0.0,4,0,0,0,0,0,0,0,0,0,1,0,0,0,0,0,0,1,0,0,0,1,0,1,1,0,0,1,1,1,1,1,0,1,1,1,1,0
Barrio Shoreditch,4.5,0.7211120136822641,$$ - $$$,False,51.526104,-0.078148,False,False,1150,123.0,45.0,49.0,129.0,804.0,0.0,2,0,0,0,0,0,0,0,0,0,1,0,0,0,1,0,0,0,0,0,0,1,0,1,1,0,1,1,0,1,1,0,0,0,1,1,1,1
Oysteria,5.0,1.7703732729779174,$$ - $$$,False,51.50238,-0.019855,True,False,175,0.0,2.0,2.0,10.0,161.0,0.0,4,0,0,0,0,1,0,0,0,0,1,0,0,0,0,0,0,0,0,0,0,1,0,1,1,0,1,0,0,1,1,0,0,0,1,1,1,0
Bouchon Racine,4.5,0.7211120136822641,$$$$,False,51.520073,-0.10389,False,False,94,1.0,3.0,10.0,7.0,73.0,1.0,3,0,0,0,0,0,0,0,0,0,1,1,0,0,0,0,0,0,1,0,0,0,0,1,0,0,0,0,0,0,0,0,0,0,1,1,1,0
Flat Iron Waterloo,4.5,0.7211120136822641,$$ - $$$,False,51.503136,-0.106815,False,False,210,4.0,2.0,5.0,21.0,178.0,0.0,2,0,0,0,0,1,0,0,0,0,0,0,0,0,0,0,0,1,0,0,0,0,0,1,0,0,0,0,0,0,1,0,0,0,1,1,1,0
Taverna Trastevere,4.5,0.7211120136822641,$$ - $$$,False,51.46055,-0.176535,False,False,217,13.0,15.0,16.0,20.0,153.0,0.0,8,1,0,0,0,1,0,1,0,0,0,1,1,0,0,0,0,0,0,0,0,1,0,0,1,0,0,0,0,0,0,0,0,0,1,1,1,0
Six By Nico London,4.0,-0.32814924561338926,$$ - $$$,False,51.51907,-0.135623,False,False,314,20.0,38.0,47.0,53.0,156.0,0.0,3,0,0,0,0,0,0,1,0,0,0,1,0,0,0,0,0,0,0,0,0,0,0,0,1,0,0,0,0,0,0,0,0,1,1,1,1,0
Nipa Thai Restaurant,4.5,0.7211120136822641,$$$$,False,51.51238,-0.175043,False,True,1056,17.0,19.0,72.0,178.0,770.0,0.0,2,0,0,0,0,0,0,0,0,0,0,0,0,1,0,0,0,0,0,0,0,1,0,1,1,0,0,1,0,1,1,1,0,1,1,1,1,0
El Pastor,4.0,-0.32814924561338926,$$ - $$$,False,51.50528,-0.091133,False,False,715,65.0,51.0,82.0,183.0,334.0,1.0,2,0,0,0,0,0,0,0,0,0,0,0,0,0,1,0,0,0,0,0,0,0,0,1,1,0,0,0,0,1,1,0,0,0,1,0,1,0
Le Petit Citron,4.5,0.7211120136822641,$$ - $$$,False,51.499523,-0.22236,True,False,219,5.0,2.0,11.0,19.0,182.0,0.0,4,0,0,0,0,1,0,0,0,0,0,1,0,0,0,0,0,0,1,0,0,1,0,1,1,0,1,1,1,1,1,1,0,1,1,1,1,0
Llerena Ibérico Tapas Bar,5.0,1.7703732729779174,$$ - $$$,False,51.541023,-0.102814,True,False,179,1.0,2.0,3.0,20.0,153.0,0.0,3,0,0,0,0,1,0,0,0,0,0,1,0,0,0,0,0,0,0,0,0,0,0,1,1,0,0,0,0,1,0,0,0,0,1,1,1,0
Zero Sette Bar Restaurant @ Excel ,4.0,-0.32814924561338926,$$ - $$$,False,51.508595,0.025208,True,False,471,25.0,23.0,48.0,160.0,215.0,0.0,4,1,0,0,0,1,0,0,0,0,0,1,1,0,0,0,0,0,0,0,0,1,0,1,1,0,1,1,0,1,1,0,0,0,1,1,1,0
Scully St James's,4.5,0.7211120136822641,$$$$,False,51.508694,-0.133041,False,False,358,4.0,10.0,15.0,41.0,288.0,0.0,1,0,0,0,0,0,0,1,0,0,0,0,0,0,0,0,0,0,0,0,0,1,0,1,1,0,0,0,0,1,1,0,0,1,1,1,1,0
Sheila's Cafe,4.5,0.7211120136822641,$,False,51.512234,-0.178324,True,True,407,14.0,7.0,22.0,65.0,299.0,0.0,2,0,0,0,0,0,0,0,0,0,0,0,0,0,0,0,1,1,0,0,0,1,0,0,1,0,0,0,0,0,0,1,0,0,0,0,1,0
Scarlett Green,5.0,1.7703732729779174,$$ - $$$,False,51.515247,-0.135769,False,False,4474,25.0,42.0,54.0,189.0,4165.0,0.0,3,0,0,0,1,0,0,1,0,0,0,1,0,0,0,0,0,0,0,0,0,1,0,1,1,0,0,1,1,1,1,1,0,0,1,1,1,1
Heddon Street Kitchen,4.0,-0.32814924561338926,$$ - $$$,False,51.51086,-0.139283,True,False,3474,174.0,303.0,421.0,659.0,1918.0,0.0,3,0,0,0,0,0,0,0,0,0,1,1,0,0,0,0,0,1,0,0,0,1,0,1,1,0,0,1,0,1,1,0,0,0,1,1,1,0
Purezza,4.5,0.7211120136822641,$$ - $$$,False,51.53809,-0.144396,True,False,631,17.0,11.0,20.0,65.0,518.0,0.0,4,1,0,0,1,0,0,0,0,0,0,1,1,0,0,0,0,0,0,0,0,0,0,1,0,0,0,1,0,1,1,0,0,1,1,1,1,0
The Blues Kitchen Camden,4.5,0.7211120136822641,$$ - $$$,False,51.537106,-0.141228,False,False,2102,110.0,104.0,158.0,429.0,1301.0,0.0,3,0,1,0,0,0,0,0,0,0,1,0,0,0,0,0,0,0,0,0,0,0,0,1,1,0,0,1,0,1,1,0,0,0,1,1,1,1
Zonzo Restaurant,4.5,0.7211120136822641,$$ - $$$,False,51.521057,-0.171258,True,False,1151,55.0,40.0,50.0,190.0,816.0,0.0,4,1,0,0,1,1,0,0,0,0,0,0,1,0,0,0,0,0,0,0,0,1,0,1,1,0,1,1,0,1,1,0,0,0,1,1,1,0
Norma,4.0,-0.32814924561338926,$$ - $$$,False,51.518353,-0.134422,False,False,312,16.0,31.0,41.0,47.0,177.0,1.0,6,1,0,0,0,1,0,0,0,0,0,1,0,0,0,0,0,0,0,0,1,1,0,1,1,0,0,1,0,1,1,1,0,0,1,1,1,0
Josephine Bouchon,4.0,-0.32814924561338926,$$ - $$$,False,51.486614,-0.179605,False,False,84,12.0,5.0,17.0,10.0,40.0,1.0,2,0,0,0,0,0,0,0,0,0,0,1,0,0,0,0,0,0,1,0,0,0,0,1,0,0,0,0,0,0,0,0,0,0,1,1,1,0
The Piano Works Farringdon,4.0,-0.32814924561338926,$$ - $$$,False,51.523033,-0.107983,False,False,1356,193.0,72.0,91.0,188.0,812.0,0.0,2,0,0,0,0,0,0,0,0,0,1,0,0,0,0,0,0,1,0,0,0,0,0,0,0,1,0,1,0,0,1,0,0,1,1,1,1,1
Daffodil Mulligan,4.5,0.7211120136822641,$$ - $$$,False,51.52478,-0.08785,False,False,104,1.0,7.0,6.0,18.0,72.0,0.0,3,0,0,0,0,1,0,0,0,0,1,0,0,0,0,0,0,1,0,0,0,0,0,1,0,0,0,1,0,1,1,0,0,0,1,1,1,1
Gallio,5.0,1.7703732729779174,$$ - $$$,False,51.505146,-0.020099,True,True,381,4.0,8.0,8.0,16.0,345.0,0.0,2,0,0,0,0,1,0,0,0,0,0,0,1,0,0,0,0,0,0,0,0,1,0,1,1,0,1,1,0,1,1,1,0,1,1,1,1,0
Bodean's BBQ - Tower Hill,4.0,-0.32814924561338926,$$ - $$$,False,51.509705,-0.078876,False,False,2132,94.0,125.0,286.0,747.0,880.0,0.0,3,0,1,0,0,0,0,0,0,0,1,0,0,0,0,0,0,0,0,0,0,0,0,1,0,0,0,0,0,1,1,0,0,0,1,1,1,1
Bread Street Kitchen & Bar - Battersea,4.0,-0.32814924561338926,$$ - $$$,False,51.481827,-0.144482,True,False,359,42.0,48.0,40.0,34.0,195.0,0.0,1,0,0,0,0,0,0,0,0,0,0,0,0,0,0,0,0,1,0,0,0,0,0,0,0,1,0,0,0,0,0,0,0,0,1,1,1,0
Bancone Borough Yards,5.0,1.7703732729779174,$$ - $$$,False,51.50656,-0.091591,False,False,210,4.0,1.0,6.0,18.0,182.0,0.0,1,1,0,0,0,0,0,0,0,0,0,0,0,0,0,0,0,0,0,0,0,1,0,1,1,0,0,0,0,0,1,0,0,0,1,1,1,0
Brunswick House,4.0,-0.32814924561338926,$$ - $$$,False,51.484715,-0.126471,False,False,451,32.0,48.0,69.0,124.0,179.0,0.0,2,0,0,0,0,0,0,0,0,0,0,1,0,0,0,0,0,1,0,0,0,1,0,1,1,0,0,1,0,1,1,0,0,0,1,1,1,0
The Palomar,4.5,0.7211120136822641,$$ - $$$,False,51.51123,-0.132691,False,False,1622,48.0,51.0,125.0,325.0,1073.0,0.0,2,0,0,0,0,1,1,0,0,0,0,0,0,0,0,0,0,0,0,0,0,1,0,1,1,0,0,1,0,1,1,0,0,1,1,1,1,0
CERU,4.5,0.7211120136822641,$$ - $$$,False,51.493427,-0.176283,False,False,1233,18.0,24.0,43.0,185.0,964.0,0.0,4,0,0,0,1,1,1,1,0,0,0,0,0,0,0,0,0,0,0,0,0,1,1,1,1,0,1,1,0,1,1,0,0,0,1,1,1,0
Hithe + Seek,5.0,1.7703732729779174,$$ - $$$,False,51.510918,-0.095309,False,True,60,1.0,2.0,0.0,1.0,56.0,0.0,2,0,0,0,0,0,0,0,0,0,1,0,0,0,0,0,1,0,0,0,0,1,0,0,0,0,0,0,0,1,1,1,1,1,1,1,1,1
Angus Steakhouse Piccadilly Circus,4.0,-0.32814924561338926,$$ - $$$,False,51.51017,-0.13307,False,False,5852,517.0,464.0,888.0,1534.0,2449.0,0.0,2,0,1,0,0,1,0,0,0,0,0,0,0,0,0,0,0,0,0,0,0,0,0,0,0,1,0,1,0,1,1,0,0,1,1,1,1,0
Duck & Waffle,4.0,-0.32814924561338926,$$$$,False,51.51635,-0.08122,False,False,7334,487.0,484.0,949.0,1962.0,3453.0,0.0,2,0,0,0,0,0,0,0,0,0,0,1,0,0,0,0,0,1,0,0,0,1,0,1,1,0,0,1,0,1,1,0,0,0,1,1,1,0
Bizzarro,4.5,0.7211120136822641,$$ - $$$,False,51.514812,-0.177157,False,False,2633,64.0,88.0,240.0,760.0,1481.0,0.0,10,1,0,0,0,1,0,0,0,0,0,1,1,0,0,0,0,0,0,0,0,1,0,1,1,0,0,0,0,1,1,0,0,0,1,1,1,0
Kibele Restaurant & Bar,4.5,0.7211120136822641,$$ - $$$,False,51.521885,-0.143687,True,False,708,12.0,8.0,31.0,110.0,547.0,0.0,3,0,0,0,0,1,1,0,0,0,0,0,0,0,0,0,0,0,0,0,0,1,1,1,1,0,0,1,0,1,1,0,0,1,1,1,1,1
Bread Street Kitchen & Bar - St Paul's,4.0,-0.32814924561338926,$$ - $$$,False,51.513336,-0.095009,False,False,3601,177.0,285.0,526.0,939.0,1674.0,0.0,2,0,0,0,0,0,0,0,0,0,0,1,0,0,0,0,0,1,0,0,0,1,0,1,1,0,0,1,0,1,1,0,0,0,1,1,1,1
Rasa Sayang,4.0,-0.32814924561338926,$$ - $$$,False,51.512127,-0.131451,False,False,1029,85.0,55.0,136.0,335.0,418.0,0.0,3,0,0,0,0,0,0,0,0,0,0,0,0,1,0,0,0,0,0,0,0,1,1,0,1,0,0,0,0,1,1,0,0,0,1,1,1,0
Rocket Canary Wharf,4.0,-0.32814924561338926,$$ - $$$,False,51.50444,-0.014893,True,False,276,12.0,15.0,36.0,73.0,140.0,0.0,5,0,0,0,0,0,0,0,0,0,1,1,0,0,0,0,0,1,0,0,0,1,0,1,1,0,0,0,1,1,0,1,0,0,1,1,1,0
Wright Brothers Borough,4.5,0.7211120136822641,$$ - $$$,False,51.50563,-0.091512,False,False,1306,33.0,31.0,90.0,339.0,814.0,0.0,3,0,0,0,1,1,0,0,0,0,0,0,0,0,0,0,0,1,0,0,0,0,0,1,0,0,0,0,0,0,1,0,0,1,1,1,1,0
Hoppers King's Cross,4.0,-0.32814924561338926,$$ - $$$,False,51.534256,-0.125461,True,False,222,17.0,23.0,30.0,54.0,98.0,0.0,2,0,0,0,0,0,0,0,0,0,0,0,0,1,0,0,0,0,0,0,0,1,0,0,1,0,0,0,0,0,0,0,0,1,1,1,1,0
Tea and Tattle,4.5,0.7211120136822641,$$ - $$$,False,51.51792,-0.126834,False,False,364,12.0,13.0,26.0,96.0,218.0,0.0,1,0,0,0,0,0,0,0,0,0,0,0,0,0,0,0,0,1,0,0,0,1,0,0,1,0,0,0,0,0,0,0,0,0,0,1,1,0
Brawn,4.5,0.7211120136822641,$$ - $$$,False,51.528954,-0.07029,False,False,359,9.0,9.0,29.0,102.0,210.0,1.0,1,0,0,0,0,0,0,0,0,0,0,1,0,0,0,0,0,0,0,0,0,0,0,1,1,0,0,0,0,1,1,0,0,0,1,1,1,0
Dinner by Heston Blumenthal,4.5,0.7211120136822641,$$$$,False,51.502163,-0.159963,False,False,5334,63.0,169.0,494.0,1025.0,3583.0,1.0,1,0,0,0,0,0,0,0,0,0,0,0,0,0,0,0,0,1,0,0,0,1,0,1,1,0,1,0,0,1,1,0,0,0,1,1,1,0
The Delhi Brasserie,4.0,-0.32814924561338926,$$ - $$$,True,51.513344,-0.131435,True,True,967,52.0,55.0,78.0,259.0,523.0,0.0,3,0,0,0,0,0,0,0,1,0,0,0,0,1,0,0,0,0,0,0,0,1,1,1,1,0,0,0,0,0,1,0,0,0,1,1,1,0
The Restaurant At St Martins Lane London,4.5,0.7211120136822641,$$ - $$$,False,51.51048,-0.126689,False,False,161,3.0,3.0,6.0,17.0,132.0,0.0,3,0,0,0,0,0,0,1,0,0,0,0,0,0,0,0,1,0,1,0,0,1,0,1,1,0,1,0,0,0,1,0,0,0,1,1,1,1
Passyunk Avenue,4.5,0.7211120136822641,$$ - $$$,False,51.522003,-0.140365,False,False,428,18.0,12.0,24.0,53.0,321.0,0.0,2,0,1,0,0,0,0,0,0,0,1,0,0,0,0,0,0,0,0,0,0,0,0,1,0,0,0,1,0,0,1,0,0,0,1,1,1,1
Knife Restaurant,5.0,1.7703732729779174,$$ - $$$,False,51.45956,-0.13156,False,False,287,3.0,4.0,8.0,26.0,246.0,0.0,2,0,0,0,0,1,0,0,0,0,0,0,0,0,0,0,0,1,0,0,0,0,0,1,0,0,0,0,0,0,1,0,0,0,1,1,1,0
Dans le Noir ? London,4.0,-0.32814924561338926,$$$$,False,51.521507,-0.101846,False,False,3314,147.0,159.0,326.0,788.0,1894.0,0.0,2,0,0,0,0,0,0,1,0,0,0,1,0,0,0,0,0,0,0,0,0,1,0,1,1,0,0,0,0,0,1,0,0,1,1,1,1,0
Taj Mahal Indian Cuisine,5.0,1.7703732729779174,$$ - $$$,False,51.530445,-0.121969,True,False,269,5.0,4.0,9.0,13.0,238.0,0.0,5,0,0,0,1,0,0,0,1,0,1,0,0,1,0,0,0,0,0,0,0,1,0,1,1,0,1,1,0,1,1,1,0,0,1,1,1,1
Frog By Adam Handling,5.0,1.7703732729779174,$$$$,False,51.510845,-0.121981,False,False,1138,12.0,9.0,36.0,79.0,1002.0,0.0,3,0,0,0,0,0,0,1,0,0,0,1,0,0,0,0,0,1,0,0,0,1,0,1,1,0,0,1,0,1,1,0,0,0,1,1,1,0
Swan,4.5,0.7211120136822641,$$ - $$$,False,51.5211,-0.122889,False,False,974,11.0,19.0,63.0,251.0,630.0,0.0,3,0,0,0,0,0,0,0,0,0,1,0,0,0,0,0,0,1,0,0,0,1,0,1,1,0,0,1,1,1,1,1,0,1,1,1,1,0
Oxbo Bankside,4.5,0.7211120136822641,$$ - $$$,False,51.505726,-0.101035,True,False,1136,32.0,35.0,93.0,193.0,784.0,0.0,3,0,0,0,0,0,0,1,0,0,0,1,0,0,0,0,0,1,0,0,0,0,0,0,1,0,0,1,0,1,1,0,0,0,1,1,1,1
Paro Indian - Covent Garden & Strand,4.5,0.7211120136822641,$$ - $$$,False,51.511578,-0.120092,False,False,199,16.0,4.0,21.0,13.0,146.0,0.0,3,0,0,0,0,0,0,1,1,0,1,0,0,0,0,0,0,0,0,0,0,1,0,1,1,0,0,0,0,0,0,0,0,0,1,1,1,0
Oka Restaurant,4.5,0.7211120136822641,$$ - $$$,False,51.512634,-0.138717,False,False,955,8.0,19.0,75.0,246.0,607.0,0.0,3,0,0,0,0,0,0,0,0,0,0,0,0,1,0,1,0,0,0,0,0,1,0,1,1,0,0,0,0,0,1,0,0,0,1,1,1,0
The Royal Automobile Club,4.5,0.7211120136822641,$$$$,False,51.50622,-0.134982,False,False,240,7.0,2.0,8.0,54.0,169.0,0.0,2,0,0,0,0,0,0,0,0,0,0,1,0,0,0,0,0,1,0,0,0,1,0,1,1,0,0,1,0,1,1,0,0,0,1,1,1,0
"The Admiralty, Trafalgar Square",4.0,-0.32814924561338926,$$ - $$$,False,51.507313,-0.128848,False,False,1619,52.0,53.0,137.0,612.0,765.0,0.0,3,0,0,0,0,0,0,0,0,0,1,0,0,0,0,0,0,1,0,0,0,1,0,1,1,0,0,1,0,1,1,0,0,0,1,1,1,1
Sushisamba Heron Tower,4.0,-0.32814924561338926,$$$$,False,51.5161,-0.081012,False,False,6326,365.0,352.0,656.0,1613.0,3341.0,0.0,4,0,0,0,0,0,0,0,0,0,0,0,0,1,1,1,0,0,0,0,0,1,0,1,1,0,0,1,0,1,1,0,0,0,1,1,1,1
Buckingham Arms,4.5,0.7211120136822641,$$ - $$$,False,51.49922,-0.136832,False,False,359,12.0,9.0,23.0,101.0,214.0,0.0,3,0,0,0,0,0,0,0,0,0,1,0,0,0,0,0,0,1,0,0,0,1,0,0,1,0,0,0,0,1,0,0,0,0,1,1,1,0
Lord Nelson,4.5,0.7211120136822641,$$ - $$$,False,51.50347,-0.102886,False,False,527,15.0,10.0,23.0,147.0,332.0,0.0,3,0,0,0,0,0,0,0,0,0,1,0,0,0,0,0,0,1,0,0,0,1,0,1,1,0,0,1,1,1,1,1,0,0,1,1,1,0
Harry's Marylebone,4.0,-0.32814924561338926,$$ - $$$,False,51.515278,-0.1506,False,False,720,71.0,43.0,56.0,80.0,470.0,0.0,3,1,0,0,0,0,0,1,0,0,0,0,0,0,0,0,0,0,0,0,0,0,0,0,1,0,0,1,0,1,1,0,0,1,1,1,1,0
"The Scarsdale Tavern, Kensington",4.5,0.7211120136822641,$$ - $$$,False,51.496914,-0.199227,False,False,593,28.0,23.0,37.0,156.0,350.0,0.0,4,0,0,0,0,0,0,0,0,0,1,0,0,0,0,0,0,1,0,0,0,1,0,1,1,0,1,1,0,0,1,0,0,0,1,1,1,1
Steak and Company - Piccadilly Circus,4.5,0.7211120136822641,$$ - $$$,False,51.509304,-0.132145,False,False,1720,46.0,32.0,76.0,239.0,1327.0,0.0,2,0,0,0,0,1,0,1,0,0,0,0,0,0,0,0,0,0,0,0,0,0,0,1,1,0,0,1,0,1,1,0,0,1,1,1,1,0
Busaba,4.0,-0.32814924561338926,$$ - $$$,False,51.513054,-0.123527,False,False,1099,71.0,71.0,121.0,309.0,527.0,0.0,1,0,0,0,0,0,0,0,0,0,0,0,0,1,0,0,0,0,0,0,0,1,0,1,1,0,0,1,0,1,1,0,0,1,1,1,1,0
Parlour,4.0,-0.32814924561338926,$$ - $$$,False,51.528755,-0.216609,False,False,305,19.0,17.0,18.0,81.0,170.0,0.0,4,0,0,0,0,0,0,0,0,0,1,0,0,0,0,0,0,1,0,0,0,1,0,1,1,0,0,1,0,1,1,0,0,0,1,1,1,0
Los Mochis London City,4.0,-0.32814924561338926,$$$$,False,51.51793,-0.083686,True,False,127,17.0,11.0,10.0,9.0,81.0,0.0,4,0,0,0,0,0,0,0,0,0,0,0,0,1,1,1,0,0,0,0,0,0,0,0,0,1,0,1,1,0,1,0,0,0,1,1,1,0
Sale E Pepe,4.0,-0.32814924561338926,$$ - $$$,False,51.500538,-0.160657,True,False,1192,61.0,65.0,108.0,327.0,631.0,0.0,3,1,0,0,0,1,0,0,0,0,0,1,0,0,0,0,0,0,0,0,0,1,0,1,1,0,0,1,0,1,1,0,0,0,1,1,1,0
Blacklock Covent Garden,4.5,0.7211120136822641,$$ - $$$,False,51.510696,-0.124592,False,False,280,3.0,9.0,21.0,40.0,207.0,0.0,2,0,0,0,0,1,0,0,0,0,0,0,0,0,0,0,0,1,0,0,0,0,0,1,0,0,0,1,0,1,1,1,0,1,1,1,1,0
Madera at Treehouse London,4.0,-0.32814924561338926,$$ - $$$,False,51.51794,-0.142556,False,False,516,43.0,35.0,40.0,44.0,353.0,0.0,1,0,0,0,0,0,0,0,0,0,0,0,0,0,1,0,0,0,0,0,0,1,0,0,0,0,0,0,0,0,1,0,0,0,1,1,1,0
Akara London,4.5,0.7211120136822641,$$ - $$$,False,51.506443,-0.091605,False,False,71,1.0,6.0,4.0,4.0,56.0,0.0,1,0,0,0,0,0,0,0,0,0,0,0,0,0,0,0,0,0,0,0,1,0,0,0,1,0,0,1,0,1,1,1,0,1,1,1,1,0
Scoff And Banter Kensington,4.5,0.7211120136822641,$$ - $$$,False,51.495228,-0.181887,False,False,1240,34.0,42.0,89.0,284.0,792.0,0.0,3,0,0,0,0,0,0,1,0,0,1,0,0,0,0,0,0,1,0,0,0,1,0,1,1,0,0,1,0,1,1,0,0,0,1,1,1,1
The Clachan,4.5,0.7211120136822641,$$ - $$$,False,51.513515,-0.1403,False,False,1212,63.0,46.0,77.0,242.0,784.0,0.0,3,0,0,0,0,0,0,0,0,0,1,0,0,0,0,0,0,1,0,0,0,1,0,0,1,0,0,1,0,1,1,0,0,1,1,1,1,1
The Oystermen Seafood Bar & Kitchen,4.5,0.7211120136822641,$$ - $$$,False,51.511295,-0.123494,False,False,1525,21.0,23.0,56.0,197.0,1228.0,0.0,3,0,0,0,1,1,0,0,0,0,0,0,0,0,0,0,0,1,0,0,0,0,0,1,0,0,0,1,0,0,1,0,0,0,1,1,1,0
Gordon's Wine Bar,4.5,0.7211120136822641,$$ - $$$,False,51.50791,-0.123355,False,False,2212,58.0,48.0,102.0,663.0,1341.0,0.0,3,0,0,0,0,0,0,0,0,0,1,0,0,0,0,0,0,1,0,0,0,0,0,0,1,0,0,0,0,0,1,0,0,0,1,0,1,0
The Parakeet,4.5,0.7211120136822641,$$ - $$$,False,51.54979,-0.140488,False,False,101,1.0,5.0,3.0,6.0,86.0,1.0,2,0,0,0,0,0,0,0,0,0,1,0,0,0,0,0,0,1,0,0,0,0,0,1,1,0,0,0,0,0,1,0,0,0,1,1,1,0
GŎNG Bar,4.0,-0.32814924561338926,$$$$,False,51.50429,-0.086708,False,False,1933,117.0,99.0,193.0,402.0,1121.0,0.0,3,0,0,0,0,0,0,1,0,0,1,0,0,0,0,1,0,0,0,0,0,1,0,1,1,0,0,1,0,1,1,0,0,1,1,0,1,0
"The Mayfair Chippy, Fish and Chips",4.5,0.7211120136822641,$$ - $$$,False,51.513203,-0.153365,True,False,1756,47.0,45.0,106.0,496.0,1062.0,0.0,2,0,0,0,0,1,0,0,0,0,0,0,0,0,0,0,0,1,0,0,0,0,0,1,1,0,0,0,0,1,1,0,0,0,1,1,1,0
The Riverside,3.5,-1.3774105049090426,$$ - $$$,False,51.48573,-0.126911,False,False,605,73.0,79.0,71.0,110.0,272.0,0.0,4,0,0,0,0,0,0,0,0,0,1,0,0,0,0,0,0,1,0,0,0,1,0,1,1,0,0,1,0,1,1,0,0,0,1,1,1,1
Browns Brasserie & Bar Old Jewry,4.0,-0.32814924561338926,$$ - $$$,False,51.514153,-0.090917,True,False,661,39.0,44.0,49.0,168.0,363.0,0.0,2,0,0,0,0,0,0,0,0,0,1,0,0,0,0,0,0,1,0,0,0,1,0,1,1,0,0,1,0,1,1,0,0,0,1,1,1,0
SUSHISAMBA Covent Garden,4.0,-0.32814924561338926,$$$$,False,51.51245,-0.122391,False,False,707,65.0,55.0,79.0,115.0,393.0,0.0,2,0,0,0,0,0,0,0,0,0,0,0,0,0,1,1,0,0,0,0,0,0,0,1,1,0,0,1,0,1,1,0,0,0,1,1,1,0
East Street by Tampopo Fitzrovia,4.5,0.7211120136822641,$$ - $$$,False,51.516617,-0.132968,True,False,1499,24.0,37.0,88.0,339.0,1012.0,0.0,2,0,0,1,0,0,0,0,0,0,0,0,0,1,0,0,0,0,0,0,0,1,0,1,1,0,0,1,1,1,1,1,0,1,1,1,1,0
The Diamond Jubilee Tea Salon,4.0,-0.32814924561338926,$$$$,False,51.50826,-0.138287,False,False,2140,115.0,177.0,284.0,412.0,1152.0,0.0,1,0,0,0,0,0,0,0,0,0,0,0,0,0,0,0,0,1,0,0,0,1,0,1,1,0,0,1,0,1,1,0,0,0,1,1,1,1
Moira Restaurant,5.0,1.7703732729779174,$$ - $$$,False,51.500416,-0.021096,True,False,212,3.0,1.0,4.0,16.0,188.0,0.0,3,0,0,0,0,1,1,0,0,0,0,0,0,0,0,0,0,0,0,0,0,1,1,1,1,0,0,0,0,0,0,0,0,0,1,1,1,0
Bala Baya,4.5,0.7211120136822641,$$ - $$$,False,51.50317,-0.101883,False,False,648,15.0,42.0,61.0,122.0,408.0,1.0,3,0,0,0,0,1,1,0,0,0,0,0,0,0,0,0,0,0,0,0,0,1,0,1,1,0,0,1,0,1,1,0,0,1,1,1,1,0
The Anchor Tap,4.5,0.7211120136822641,$$ - $$$,False,51.50361,-0.075946,False,False,374,16.0,9.0,25.0,96.0,228.0,0.0,3,0,0,0,0,0,0,0,0,0,1,0,0,0,0,0,0,1,0,0,0,0,0,0,1,0,0,0,0,0,0,0,0,0,1,1,1,0
Bacchanalia Mayfair,4.0,-0.32814924561338926,$$$$,False,51.510574,-0.147733,False,False,646,68.0,53.0,44.0,43.0,438.0,0.0,3,1,0,0,0,0,0,1,0,0,0,1,0,0,0,0,0,0,0,0,0,0,0,0,0,1,0,0,0,0,0,0,0,0,1,1,1,0
Oblix,4.0,-0.32814924561338926,$$$$,False,51.504272,-0.086549,False,False,6248,390.0,424.0,822.0,1705.0,2907.0,0.0,3,0,0,0,0,1,0,1,0,0,0,0,0,0,0,0,0,0,0,0,0,1,0,0,1,0,0,1,0,1,1,0,0,0,1,1,1,1
Colonel Saab Trafalgar Square,5.0,1.7703732729779174,$$ - $$$,False,51.509563,-0.126259,False,False,295,2.0,2.0,7.0,14.0,273.0,0.0,2,0,0,0,0,0,0,0,1,0,0,0,0,1,0,0,0,0,0,0,0,1,0,1,1,0,0,0,0,0,1,0,0,0,1,1,1,0
Chet's,4.5,0.7211120136822641,$$ - $$$,False,51.50474,-0.224848,True,False,223,10.0,8.0,5.0,14.0,187.0,0.0,2,0,0,0,0,0,0,0,0,0,0,0,0,1,0,0,0,0,0,0,0,1,0,0,1,0,0,0,0,0,1,0,0,0,1,1,1,0
Lands End Restaurant,4.0,-0.32814924561338926,$$$$,False,51.507202,0.024139,False,False,314,25.0,22.0,43.0,50.0,174.0,0.0,1,0,0,0,0,0,0,0,0,0,0,0,0,0,0,0,0,1,0,0,0,0,0,1,1,0,0,1,0,1,1,0,0,0,1,1,1,0
Dim Sum Duck,4.0,-0.32814924561338926,$$ - $$$,False,51.53024,-0.116389,False,False,71,14.0,2.0,5.0,12.0,38.0,1.0,7,0,0,1,0,0,0,1,0,0,0,0,0,1,0,0,0,0,0,0,0,0,0,0,0,1,0,0,0,0,0,0,0,0,1,0,1,0
Maggie Jones's,4.5,0.7211120136822641,$$ - $$$,False,51.502842,-0.191026,False,False,1230,36.0,46.0,112.0,302.0,734.0,0.0,1,0,0,0,0,0,0,0,0,0,0,0,0,0,0,0,0,1,0,0,0,0,0,1,1,0,0,0,0,1,1,0,0,0,1,1,1,0
Bill's Victoria Restaurant,4.5,0.7211120136822641,$$ - $$$,False,51.49722,-0.14098,False,False,566,27.0,22.0,31.0,80.0,408.0,0.0,2,0,0,0,0,0,0,1,0,0,0,0,0,0,0,0,0,1,0,0,0,0,0,1,1,0,0,0,1,1,1,1,0,0,1,1,1,0
Da Mario Covent Garden,4.5,0.7211120136822641,$$ - $$$,False,51.515083,-0.125686,False,False,1881,33.0,35.0,95.0,324.0,1394.0,0.0,4,1,0,0,1,1,0,0,0,0,0,1,0,0,0,0,0,0,0,0,0,0,0,1,0,0,1,0,0,0,1,1,0,1,1,1,1,0
Brat,4.5,0.7211120136822641,$$ - $$$,False,51.524204,-0.076704,False,False,376,13.0,16.0,36.0,80.0,231.0,1.0,5,0,0,0,0,1,0,1,0,0,1,1,0,0,0,0,0,1,0,0,0,0,0,1,1,0,0,0,0,0,0,0,0,0,1,1,1,0
Swan London,4.0,-0.32814924561338926,$$ - $$$,False,51.50831,-0.096471,False,False,2581,103.0,166.0,348.0,923.0,1041.0,0.0,1,0,0,0,0,0,0,0,0,0,0,0,0,0,0,0,0,1,0,0,0,1,0,1,1,0,0,1,0,1,1,0,0,0,1,1,1,1
Roe,4.0,-0.32814924561338926,$$ - $$$,False,51.50239,-0.015184,False,False,43,2.0,4.0,3.0,7.0,27.0,1.0,3,0,0,0,0,0,0,1,0,0,0,1,0,0,0,0,0,1,0,0,0,1,0,0,1,0,0,1,1,1,0,0,1,0,1,0,1,0
Burger & Lobster Soho,4.5,0.7211120136822641,$$ - $$$,False,51.51347,-0.132281,True,False,3982,103.0,107.0,396.0,1349.0,2027.0,0.0,2,0,1,0,0,1,0,0,0,0,0,0,0,0,0,0,0,0,0,0,0,0,0,1,0,0,0,1,0,1,1,0,0,0,1,1,1,0
Botanica,4.5,0.7211120136822641,$$ - $$$,False,51.520737,-0.123576,False,False,161,3.0,3.0,3.0,17.0,135.0,0.0,2,0,0,0,1,0,0,0,0,0,0,0,0,0,0,0,0,1,0,0,0,1,0,1,1,0,0,0,0,1,1,0,0,0,1,1,1,0
Daphne Restaurant,5.0,1.7703732729779174,$$ - $$$,False,51.53776,-0.140202,False,False,352,1.0,2.0,3.0,33.0,313.0,0.0,2,0,0,0,0,1,0,0,0,0,0,1,0,0,0,0,0,0,0,0,0,1,0,1,1,0,0,0,0,1,1,0,0,0,1,1,1,0
A.Wong,4.5,0.7211120136822641,$$ - $$$,False,51.493008,-0.140564,False,False,1039,48.0,39.0,81.0,193.0,678.0,0.0,5,0,0,1,0,0,0,0,0,0,0,0,0,1,0,0,0,0,0,0,0,0,0,0,1,0,0,0,0,1,1,0,0,0,1,1,1,0
The Blues Kitchen - Brixton,4.5,0.7211120136822641,$$ - $$$,False,51.460415,-0.119159,False,False,1141,60.0,42.0,62.0,139.0,838.0,0.0,3,0,1,0,0,0,0,0,0,0,1,0,0,0,0,0,0,0,0,0,0,1,0,1,1,0,0,1,0,1,1,0,0,0,1,1,1,1
Randall & Aubin,4.5,0.7211120136822641,$$ - $$$,False,51.51233,-0.134145,False,False,1907,38.0,65.0,125.0,370.0,1310.0,0.0,4,0,0,0,0,1,0,0,0,0,0,0,0,0,0,0,0,1,1,0,0,0,0,1,1,0,0,1,0,0,1,0,0,1,1,1,1,0
Dishoom Kensington,4.5,0.7211120136822641,$$ - $$$,False,51.501278,-0.191123,False,False,1480,48.0,37.0,77.0,252.0,1065.0,0.0,2,0,0,0,0,0,0,0,1,0,0,0,0,1,0,0,0,0,0,0,0,1,0,1,1,0,0,1,0,1,1,0,0,0,1,1,1,1
Rudy's Pizza Napoletana - Soho,4.5,0.7211120136822641,$$ - $$$,False,51.51347,-0.133651,True,False,490,5.0,9.0,24.0,71.0,381.0,0.0,5,1,0,0,0,0,0,0,0,0,0,0,1,0,0,0,0,0,0,0,0,1,0,1,1,0,0,1,1,1,1,1,0,1,1,1,1,0
Grato,4.5,0.7211120136822641,$$ - $$$,False,51.500565,-0.189318,False,False,511,4.0,12.0,22.0,73.0,400.0,0.0,6,1,0,0,0,1,0,0,0,0,0,0,0,0,0,0,0,0,0,0,0,1,0,1,1,0,1,0,1,1,1,1,0,0,1,1,1,0
Midpoint Restaurant,4.5,0.7211120136822641,$$ - $$$,False,51.486115,-0.000796,True,False,833,26.0,15.0,26.0,62.0,704.0,0.0,4,0,0,0,0,1,1,0,0,0,0,0,0,0,0,0,0,0,0,0,0,1,0,1,1,0,1,1,0,1,1,0,0,0,1,1,1,0
London Steakhouse Co.,4.0,-0.32814924561338926,$$$$,False,51.5176,-0.07795,False,False,17466,919.0,1353.0,2540.0,3928.0,8724.0,0.0,2,0,0,0,0,1,0,0,0,0,0,0,0,0,0,0,0,1,0,0,0,0,0,1,1,0,1,0,0,0,1,0,0,0,1,1,1,1
The Real Greek - Covent Garden,4.5,0.7211120136822641,$$ - $$$,False,51.51378,-0.123185,True,False,2392,84.0,93.0,193.0,624.0,1399.0,0.0,2,0,0,0,0,1,0,0,0,0,0,1,0,0,0,0,0,0,0,0,0,1,0,1,1,0,0,1,0,1,1,0,0,0,1,1,1,1
Lime and Thyme,4.5,0.7211120136822641,$$ - $$$,False,51.40953,-0.231276,False,False,359,10.0,7.0,20.0,77.0,245.0,0.0,2,0,0,0,0,1,0,0,0,0,0,1,0,0,0,0,0,0,0,0,0,1,0,1,1,0,0,1,0,1,1,0,0,0,1,1,1,0
Honest Burgers South Bank,4.5,0.7211120136822641,$$ - $$$,False,51.50541,-0.116892,False,False,375,13.0,10.0,28.0,87.0,237.0,0.0,3,0,1,0,0,0,0,0,0,0,0,0,0,0,0,0,1,0,0,1,0,1,0,1,1,0,0,1,0,1,0,0,0,0,1,1,1,0
Gordon Ramsay Street Pizza - St Paul's,4.5,0.7211120136822641,$$ - $$$,False,51.513363,-0.094995,True,False,1066,53.0,44.0,68.0,93.0,808.0,0.0,3,1,0,0,0,0,0,0,0,0,1,0,1,0,0,0,0,0,0,0,0,1,0,1,1,0,0,1,0,1,1,0,0,0,1,1,1,0
Scott's,4.5,0.7211120136822641,$$$$,False,51.50981,-0.150855,False,False,2888,91.0,100.0,251.0,555.0,1891.0,1.0,3,0,0,0,0,1,0,0,0,0,0,1,0,0,0,0,0,1,0,0,0,0,0,1,1,0,0,1,0,1,1,0,0,0,1,1,1,0
Restaurant Gordon Ramsay,4.5,0.7211120136822641,$$$$,False,51.485424,-0.162018,False,False,3406,56.0,77.0,191.0,411.0,2671.0,1.0,4,0,0,0,0,0,0,1,0,0,0,1,0,0,0,0,0,1,1,0,0,1,0,1,1,0,0,0,0,1,1,0,0,0,1,1,1,0
Browns Victoria,4.0,-0.32814924561338926,$$ - $$$,False,51.49715,-0.141352,False,False,1988,151.0,196.0,270.0,459.0,912.0,0.0,1,0,0,0,0,0,0,0,0,0,0,0,0,0,0,0,0,1,0,0,0,1,0,1,1,0,0,1,0,1,1,0,0,0,1,1,1,0
The Lamb Tavern,4.0,-0.32814924561338926,$$ - $$$,False,51.512833,-0.083472,False,False,438,19.0,18.0,36.0,142.0,224.0,0.0,3,0,0,0,0,0,0,0,0,0,1,0,0,0,0,0,0,1,0,0,0,1,0,1,1,0,0,1,0,0,1,0,0,0,1,1,1,0
Iberica Canary Wharf,4.0,-0.32814924561338926,$$ - $$$,False,51.50565,-0.022104,False,False,687,43.0,65.0,96.0,223.0,260.0,0.0,2,0,0,0,0,0,0,0,0,0,0,1,0,0,0,0,0,0,1,0,0,0,0,1,1,0,0,0,0,1,1,0,0,0,1,1,1,0
Gola Restaurant,4.5,0.7211120136822641,$$ - $$$,False,51.476223,-0.204681,True,False,650,22.0,17.0,38.0,88.0,485.0,0.0,3,1,0,0,0,0,0,1,0,0,0,0,1,0,0,0,0,0,0,0,0,1,0,1,1,0,1,1,0,1,1,0,0,0,1,1,1,0
Its All Greek to Me,4.5,0.7211120136822641,$,False,51.5172,-0.172569,False,True,475,25.0,15.0,24.0,88.0,323.0,0.0,1,0,0,0,0,0,0,0,0,0,0,1,0,0,0,0,0,0,0,0,0,1,0,1,1,0,1,0,0,1,1,0,0,0,1,1,1,0
Misto,4.5,0.7211120136822641,$$ - $$$,False,51.50645,-0.146509,False,False,402,7.0,10.0,27.0,106.0,252.0,0.0,4,1,0,0,0,1,0,0,0,0,0,1,1,0,0,0,0,0,0,0,0,1,0,1,1,0,0,1,0,0,1,0,0,0,1,1,1,0
Bill's Covent Garden (St Martin's Courtyard),4.0,-0.32814924561338926,$$ - $$$,False,51.5125,-0.126397,False,False,2276,97.0,134.0,288.0,680.0,1083.0,0.0,1,0,0,0,0,0,0,0,0,0,0,0,0,0,0,0,0,1,0,0,0,1,0,1,1,0,0,1,1,1,1,0,0,1,1,1,1,0
Hispania London,4.5,0.7211120136822641,$$ - $$$,False,51.51287,-0.087716,True,False,609,17.0,29.0,48.0,138.0,377.0,0.0,3,0,0,0,0,1,0,0,0,0,0,1,0,0,0,0,0,0,0,0,0,1,0,1,1,0,0,1,0,1,1,0,0,0,1,1,1,0
Gouqi London,5.0,1.7703732729779174,$$$$,False,51.507435,-0.129652,True,False,475,7.0,5.0,6.0,17.0,440.0,0.0,6,0,0,1,0,0,0,1,0,0,1,0,0,1,0,0,1,0,0,0,0,1,0,1,1,0,0,1,0,1,1,1,0,1,1,1,1,0
Bar Remo,4.5,0.7211120136822641,$$ - $$$,False,51.51458,-0.142419,False,False,1449,28.0,27.0,77.0,360.0,956.0,0.0,9,1,0,0,0,0,0,0,0,0,0,0,0,0,0,0,0,1,0,0,0,1,0,1,1,0,0,1,0,1,1,0,0,0,1,1,1,0
Langan's Brasserie,4.0,-0.32814924561338926,$$$$,False,51.507164,-0.143542,False,False,2612,93.0,215.0,336.0,725.0,1244.0,1.0,2,0,0,0,0,0,0,0,0,0,0,0,0,0,0,0,0,1,1,0,0,1,0,1,1,0,0,1,0,1,1,0,0,0,1,1,1,0
Indigo Restaurant,4.5,0.7211120136822641,$$$$,False,51.511684,-0.119278,False,False,705,11.0,11.0,62.0,173.0,448.0,0.0,3,0,0,0,1,1,0,0,0,0,0,0,0,0,0,0,0,1,0,0,0,1,0,1,1,0,0,1,0,1,0,0,0,0,1,1,1,0
Boisdale of Canary Wharf,4.0,-0.32814924561338926,$$$$,False,51.505196,-0.022913,False,False,1409,129.0,120.0,227.0,359.0,574.0,0.0,3,0,0,0,0,1,0,0,0,0,0,0,0,0,0,0,0,1,0,0,0,0,0,1,1,0,1,1,0,1,1,0,0,1,1,1,1,1
Paramount Lebanese Kitchen,4.5,0.7211120136822641,$,False,51.51586,-0.174612,True,False,519,17.0,12.0,15.0,119.0,356.0,0.0,4,0,0,0,1,1,1,0,0,0,0,0,0,0,0,0,0,0,0,0,0,1,1,1,1,0,0,0,0,0,0,0,0,0,0,1,1,0
Big Easy Covent Garden,3.5,-1.3774105049090426,$$ - $$$,False,51.510677,-0.122983,True,True,4455,563.0,490.0,609.0,1112.0,1682.0,0.0,1,0,1,0,0,0,0,0,0,0,0,0,0,0,0,0,0,0,0,0,0,0,0,1,0,0,0,0,0,1,1,0,0,1,1,1,1,1
The Monkey Puzzle,4.5,0.7211120136822641,$$ - $$$,False,51.516403,-0.169852,False,False,707,11.0,15.0,51.0,207.0,423.0,0.0,3,0,0,0,0,0,0,0,0,0,1,0,0,0,0,0,0,1,0,0,0,1,0,1,1,0,0,1,0,1,1,0,0,0,1,1,1,1
The Pig & Butcher,4.5,0.7211120136822641,$$ - $$$,False,51.537453,-0.106758,False,False,693,11.0,35.0,54.0,174.0,419.0,0.0,5,0,0,0,0,0,0,0,0,0,1,1,0,0,0,0,0,1,0,0,0,0,0,1,1,0,0,1,0,1,1,0,0,0,1,1,1,0
Franco Manca St. Paul's,4.5,0.7211120136822641,$$ - $$$,False,51.513615,-0.100324,True,False,332,17.0,12.0,14.0,45.0,244.0,0.0,3,1,0,0,0,0,0,0,0,0,0,0,1,0,0,0,0,0,0,0,0,1,0,0,1,0,0,0,0,0,1,0,0,0,1,1,1,0
Mielo Restaurant,5.0,1.7703732729779174,$$ - $$$,False,51.52021,-0.15621,False,True,74,0.0,1.0,2.0,9.0,62.0,0.0,3,0,0,0,0,1,0,1,0,0,0,1,0,0,0,0,0,0,0,0,0,1,0,1,1,0,0,0,1,1,1,0,0,0,1,1,1,1
Tashas Battersea,4.5,0.7211120136822641,$$ - $$$,False,51.480785,-0.14421,True,False,40,1.0,3.0,4.0,4.0,28.0,0.0,1,0,0,0,0,0,0,0,0,0,0,0,0,0,0,0,1,0,0,0,0,1,0,0,1,0,0,0,0,1,1,0,0,0,1,0,1,0
Yucca,5.0,1.7703732729779174,$$ - $$$,False,51.48026,-0.198563,True,False,432,3.0,8.0,8.0,32.0,381.0,0.0,3,0,1,0,0,0,0,0,0,0,0,0,0,0,1,0,0,0,0,0,0,1,0,1,1,0,0,0,0,0,1,0,0,0,1,1,1,0
The Black Penny Covent Garden,4.5,0.7211120136822641,$$ - $$$,False,51.515156,-0.121577,False,False,500,23.0,27.0,40.0,111.0,299.0,0.0,1,0,0,0,0,0,0,0,0,0,1,0,0,0,0,0,0,0,0,0,0,1,0,1,1,0,0,1,0,0,1,0,0,0,1,0,1,0
Rules Restaurant,4.5,0.7211120136822641,$$$$,False,51.5108,-0.12312,False,False,5150,170.0,241.0,475.0,1138.0,3126.0,0.0,2,0,0,0,0,0,0,0,0,0,0,1,0,0,0,0,0,1,0,0,0,0,0,0,0,1,0,0,0,0,1,0,0,0,1,1,1,0
Terra Rossa - Angel,4.5,0.7211120136822641,$$ - $$$,False,51.539505,-0.102635,True,False,341,4.0,6.0,13.0,28.0,290.0,0.0,4,1,0,0,0,1,0,0,0,0,0,0,1,0,0,0,0,0,0,0,0,1,0,1,1,0,1,1,0,1,1,0,0,1,1,1,1,0
Sicily by da Scalzo,4.0,-0.32814924561338926,$$ - $$$,False,51.492737,-0.148424,False,False,1467,86.0,72.0,139.0,480.0,691.0,0.0,3,1,0,0,0,0,0,0,0,0,0,0,0,0,0,0,0,0,0,0,0,1,0,1,1,0,0,1,1,1,1,1,0,0,1,1,1,1
Flat Iron London Bridge,4.5,0.7211120136822641,$$ - $$$,False,51.5042,-0.082256,False,False,431,18.0,11.0,16.0,64.0,322.0,0.0,2,0,0,0,0,1,0,0,0,0,0,0,0,0,0,0,0,1,0,0,0,0,0,1,0,0,0,0,0,1,0,0,0,0,1,0,1,0
Butlers Wharf Chop House,4.0,-0.32814924561338926,$$ - $$$,False,51.50374,-0.074194,False,False,1965,116.0,149.0,252.0,569.0,879.0,0.0,3,0,0,0,0,1,0,0,0,0,0,1,0,0,0,0,0,1,0,0,0,0,0,1,1,0,0,1,0,1,1,1,1,1,1,1,1,0
Nonos,4.5,0.7211120136822641,$$ - $$$,False,51.52818,-0.125108,False,False,185,3.0,4.0,7.0,26.0,145.0,0.0,3,0,0,0,1,1,0,0,0,0,0,1,0,0,0,0,0,0,0,0,0,1,0,1,1,0,0,0,0,0,0,0,0,0,1,1,1,0
Whitcomb's,5.0,1.7703732729779174,$$$$,False,51.50992,-0.130274,False,False,406,7.0,6.0,8.0,28.0,357.0,0.0,2,0,0,0,0,1,0,0,0,0,0,0,0,0,0,0,0,0,1,0,0,0,0,0,1,0,0,1,0,0,0,0,0,0,1,1,1,0
Honest Burgers South Kensington,4.5,0.7211120136822641,$$ - $$$,False,51.49436,-0.17355,False,False,1067,18.0,28.0,70.0,278.0,673.0,0.0,4,0,1,0,0,0,0,0,0,0,1,0,0,0,0,0,0,1,0,1,0,1,0,1,1,0,0,1,0,1,1,0,0,0,1,0,1,0
Chez Antoinette Victoria,5.0,1.7703732729779174,$$ - $$$,False,51.49822,-0.135423,False,False,460,5.0,7.0,18.0,38.0,392.0,0.0,4,0,0,0,0,0,0,0,0,0,1,1,0,0,0,0,0,0,1,0,0,1,0,1,1,0,1,1,1,1,1,0,0,1,1,1,1,0
Buen Ayre,4.5,0.7211120136822641,$$ - $$$,False,51.536953,-0.061525,False,False,487,14.0,9.0,20.0,106.0,338.0,0.0,4,0,1,0,0,1,0,0,0,0,0,0,0,0,1,0,0,0,0,0,0,0,0,1,0,0,0,1,0,1,1,0,0,1,1,1,1,0
Fumo,4.0,-0.32814924561338926,$$ - $$$,False,51.510113,-0.126784,True,False,1660,143.0,129.0,205.0,313.0,870.0,0.0,7,1,0,0,0,1,0,0,0,0,0,1,0,0,0,0,0,0,0,0,0,1,0,1,1,0,0,1,0,1,1,0,0,0,1,1,1,0
Las Iguanas,4.0,-0.32814924561338926,$$ - $$$,False,51.50291,0.003222,False,False,1355,80.0,93.0,117.0,258.0,808.0,0.0,4,0,0,0,0,0,0,0,0,0,0,0,0,0,1,0,0,0,0,0,0,1,0,1,1,0,0,1,0,1,1,0,0,0,1,1,1,0
64 Old Compton Street,4.5,0.7211120136822641,$$ - $$$,False,51.512768,-0.132697,False,True,55,4.0,1.0,2.0,8.0,40.0,0.0,1,1,0,0,0,0,0,0,0,0,0,0,0,0,0,0,0,0,0,0,0,0,0,0,1,0,0,0,1,1,1,1,0,0,1,1,1,0
Boro Bistro,4.5,0.7211120136822641,$$ - $$$,False,51.50619,-0.088727,False,False,1105,52.0,32.0,59.0,216.0,746.0,0.0,4,0,0,0,0,0,0,0,0,0,1,1,0,0,0,0,0,0,1,0,0,1,0,1,1,0,0,0,0,1,1,0,0,0,1,1,1,0
Sartori Restaurant - Italian Restaurant,4.0,-0.32814924561338926,$$ - $$$,False,51.511826,-0.128021,True,False,2014,87.0,90.0,198.0,640.0,999.0,0.0,6,1,0,0,0,1,0,0,0,0,0,0,1,0,0,0,0,0,0,0,0,1,0,1,1,0,0,1,0,1,1,0,0,1,1,1,1,0
The Port House,4.5,0.7211120136822641,$$ - $$$,False,51.5099,-0.123089,False,False,1371,24.0,30.0,68.0,335.0,914.0,0.0,5,0,0,0,0,1,0,0,0,0,1,1,0,0,0,0,0,0,0,0,0,1,0,1,1,0,0,1,0,0,1,0,0,1,1,0,1,0
Chojo,5.0,1.7703732729779174,$$ - $$$,False,51.51513,-0.191742,False,False,376,4.0,4.0,13.0,31.0,324.0,0.0,4,0,0,1,1,0,0,0,0,0,0,0,0,1,0,0,0,0,0,1,0,1,0,1,1,0,0,0,0,0,1,0,0,0,1,1,1,0
Flat Iron Soho,4.5,0.7211120136822641,$$ - $$$,False,51.512054,-0.138342,False,False,2780,61.0,62.0,195.0,782.0,1680.0,0.0,2,0,0,0,0,1,0,0,0,0,0,0,0,0,0,0,0,1,0,0,0,0,0,1,0,0,0,0,0,0,1,0,0,0,1,0,1,0
Poppies Fish and Chips Camden,4.5,0.7211120136822641,$$ - $$$,False,51.54097,-0.143954,True,False,2988,63.0,100.0,298.0,1063.0,1465.0,0.0,3,0,0,0,0,1,0,1,0,0,0,0,0,0,0,0,0,1,0,0,0,0,0,0,0,1,0,0,0,1,1,0,0,0,1,1,1,1
Chutney Mary,4.5,0.7211120136822641,$$$$,False,51.505714,-0.138721,False,True,1431,66.0,67.0,117.0,269.0,912.0,1.0,5,0,0,0,1,1,0,0,1,0,1,0,0,1,0,0,0,0,0,0,0,0,0,0,1,0,1,1,0,1,1,0,0,0,1,1,1,0
The White Swan,4.0,-0.32814924561338926,$$ - $$$,False,51.51112,-0.125549,False,False,637,40.0,25.0,53.0,160.0,359.0,0.0,3,0,0,0,0,0,0,0,0,0,1,0,0,0,0,0,0,1,0,0,0,0,0,0,1,0,0,1,0,1,1,0,0,1,1,1,1,1
The George,4.5,0.7211120136822641,$$ - $$$,False,51.513233,-0.113072,False,False,841,12.0,16.0,32.0,178.0,603.0,0.0,2,0,0,0,0,0,0,0,0,0,1,0,0,0,0,0,0,1,0,0,0,1,0,1,1,0,0,1,0,0,1,0,0,0,1,1,1,0
Sophie's Soho,4.0,-0.32814924561338926,$$ - $$$,False,51.51101,-0.134168,False,False,673,25.0,46.0,69.0,134.0,399.0,0.0,2,0,0,0,0,1,0,0,0,0,0,0,0,0,0,0,0,1,0,0,0,0,0,1,0,0,0,1,0,1,0,0,0,1,1,1,1,0
The Curry Room,4.5,0.7211120136822641,$$$$,False,51.498283,-0.143546,False,False,207,1.0,7.0,12.0,26.0,161.0,0.0,1,0,0,0,0,0,0,0,1,0,0,0,0,0,0,0,0,0,0,0,0,1,0,1,1,0,1,1,1,1,1,1,0,1,1,1,1,0
San Carlo Cicchetti- Covent Garden,4.0,-0.32814924561338926,$$ - $$$,False,51.51228,-0.120669,False,False,2502,167.0,162.0,232.0,503.0,1438.0,0.0,1,1,0,0,0,0,0,0,0,0,0,0,0,0,0,0,0,0,0,0,0,1,0,1,1,0,0,1,0,0,1,0,0,0,1,1,1,0
Paxtons Head,4.0,-0.32814924561338926,$$ - $$$,False,51.50163,-0.162318,False,False,452,44.0,24.0,40.0,106.0,238.0,0.0,3,0,0,0,0,0,0,0,0,0,1,0,0,0,0,0,0,1,0,0,0,0,0,0,1,0,0,1,1,1,1,1,0,0,1,1,1,1
The Ivy Asia Chelsea,4.5,0.7211120136822641,$$ - $$$,False,51.486988,-0.169642,False,False,549,40.0,30.0,43.0,38.0,398.0,0.0,1,0,0,0,0,0,0,0,0,0,0,0,0,1,0,0,0,0,0,0,0,1,0,0,1,0,0,0,0,0,0,0,0,1,1,1,1,0
Dishoom Covent Garden,4.5,0.7211120136822641,$$ - $$$,False,51.51247,-0.126986,False,False,7439,208.0,216.0,566.0,1867.0,4585.0,0.0,2,0,0,0,0,0,0,0,1,0,0,0,0,1,0,0,0,0,0,0,0,1,1,1,1,0,0,1,0,1,1,0,0,0,1,0,1,0
The Feathers,4.0,-0.32814924561338926,$$ - $$$,False,51.49928,-0.133197,True,False,772,33.0,47.0,112.0,286.0,294.0,0.0,3,0,0,0,0,0,0,0,0,0,1,0,0,0,0,0,0,1,0,0,0,0,0,0,1,0,0,1,0,1,1,0,0,1,1,1,1,1
Evans & Peel Detective Agency,4.5,0.7211120136822641,$$ - $$$,False,51.490185,-0.190899,False,False,458,20.0,19.0,45.0,102.0,272.0,0.0,1,0,0,0,0,0,0,0,0,0,1,0,0,0,0,0,0,0,0,0,0,0,0,0,0,1,0,0,0,0,1,0,0,0,1,1,1,0
Manhattan Grill,4.5,0.7211120136822641,$$ - $$$,False,51.507133,-0.021465,False,False,437,18.0,16.0,41.0,98.0,264.0,0.0,3,0,0,0,0,1,0,0,0,0,0,0,0,0,0,0,0,1,0,0,0,1,0,1,1,0,0,1,0,1,1,0,0,0,1,1,1,0
The Wellington,4.0,-0.32814924561338926,$$ - $$$,False,51.511425,-0.119515,True,False,1458,50.0,63.0,130.0,589.0,626.0,0.0,4,0,0,0,0,0,0,0,0,0,1,0,0,0,0,0,0,1,0,0,0,1,0,1,1,0,0,1,0,0,1,0,0,1,1,1,1,0
Picanha Steakhouse,4.5,0.7211120136822641,$$ - $$$,False,51.423573,-0.172327,False,False,154,14.0,9.0,4.0,14.0,113.0,0.0,4,0,1,0,0,1,0,0,0,0,0,0,0,0,1,0,0,0,0,0,0,0,0,0,0,1,1,1,0,1,1,0,0,0,1,1,1,0
Whiskey Ginger,4.5,0.7211120136822641,$,False,51.50561,-0.089374,False,False,414,19.0,11.0,19.0,69.0,296.0,0.0,2,0,0,0,0,0,0,0,0,0,1,0,0,0,0,0,0,1,0,0,0,0,0,0,1,0,0,0,0,0,0,0,0,0,1,0,1,0
Lime Orange,4.5,0.7211120136822641,$$ - $$$,False,51.49563,-0.141979,True,False,726,15.0,17.0,61.0,226.0,407.0,0.0,4,0,0,0,1,0,0,0,0,1,0,0,0,1,0,0,0,0,0,0,0,1,0,1,1,0,0,1,0,1,1,0,0,0,1,1,1,0
Cecconi's Mayfair,4.0,-0.32814924561338926,$$$$,False,51.509987,-0.140532,False,False,1506,79.0,101.0,153.0,473.0,700.0,0.0,2,1,0,0,0,0,0,0,0,0,0,1,0,0,0,0,0,0,0,0,0,1,0,1,1,0,0,1,0,1,1,0,0,0,1,1,1,0
Sticky Mango Waterloo,4.5,0.7211120136822641,$$ - $$$,False,51.50606,-0.109886,False,False,1116,39.0,51.0,102.0,169.0,755.0,0.0,3,0,0,0,0,0,0,1,0,0,0,0,0,1,0,0,0,0,0,0,0,1,0,1,1,0,0,1,0,1,1,0,0,1,1,1,1,0
"The Hereford Arms, South Kensington",4.5,0.7211120136822641,$$ - $$$,False,51.49288,-0.181303,False,False,1331,31.0,36.0,95.0,441.0,728.0,0.0,4,0,0,0,0,0,0,0,0,0,1,0,0,0,0,0,0,1,0,0,0,1,0,1,1,0,1,1,0,1,1,0,0,0,1,1,1,1
Arepa & Co - Bethnal Green,4.5,0.7211120136822641,$$ - $$$,False,51.528667,-0.05618,True,False,208,7.0,8.0,21.0,40.0,132.0,0.0,3,0,0,0,0,0,0,0,0,0,0,1,0,0,1,0,0,0,0,0,0,1,0,1,1,0,0,1,0,1,1,0,0,0,1,1,1,0
The Cheese Bar,4.0,-0.32814924561338926,$$ - $$$,False,51.542484,-0.147906,False,False,497,20.0,34.0,64.0,133.0,246.0,0.0,2,0,1,0,0,0,0,0,0,0,0,0,0,0,0,0,0,1,0,0,0,0,0,1,1,0,0,0,0,0,1,0,0,0,1,1,1,0
Bocca di Lupo,4.0,-0.32814924561338926,$$ - $$$,False,51.511684,-0.133966,False,False,2539,106.0,145.0,264.0,641.0,1385.0,1.0,7,1,0,0,0,1,0,0,0,0,0,1,0,0,0,0,0,0,0,0,0,1,0,1,1,0,0,0,0,1,1,0,0,0,1,1,1,0
The Wolseley City,4.0,-0.32814924561338926,$$ - $$$,False,51.51105,-0.086617,False,False,58,2.0,6.0,10.0,9.0,31.0,0.0,2,0,0,0,0,0,0,0,0,0,0,1,0,0,0,0,0,0,0,0,0,0,0,0,1,0,1,1,0,1,1,1,0,1,1,1,1,0
Mother Mash Covent Garden,4.5,0.7211120136822641,$$ - $$$,False,51.51101,-0.126488,False,False,81,2.0,1.0,6.0,15.0,57.0,0.0,1,0,0,0,0,0,0,0,0,0,0,0,0,0,0,0,0,1,0,0,0,0,0,0,1,0,0,0,0,0,1,0,0,0,1,1,1,0
Sapori Cafe' and Restaurant,4.5,0.7211120136822641,$,False,51.49497,-0.127702,True,False,396,11.0,0.0,13.0,84.0,288.0,0.0,3,1,0,0,0,1,0,0,0,0,0,0,0,0,0,0,1,0,0,0,0,1,0,1,1,0,0,0,0,1,1,0,0,0,0,0,1,0
Coyote Ugly Saloon Camden,4.0,-0.32814924561338926,$$ - $$$,False,51.542046,-0.146969,True,False,264,56.0,15.0,24.0,7.0,162.0,0.0,4,0,1,0,0,0,0,0,0,0,1,0,0,0,0,0,0,1,0,1,0,0,0,0,0,1,0,0,0,0,0,0,0,0,1,1,1,0
The Sipping Room,4.0,-0.32814924561338926,$$ - $$$,False,51.507725,-0.022596,False,False,540,61.0,42.0,41.0,83.0,313.0,0.0,4,0,0,0,0,0,0,1,0,0,1,1,0,0,0,0,0,1,0,0,0,1,0,1,1,0,0,1,0,1,1,0,0,0,1,1,1,0
Coco Momo,4.5,0.7211120136822641,$$ - $$$,False,51.498142,-0.183488,True,False,802,26.0,21.0,78.0,268.0,410.0,0.0,4,0,1,0,0,1,0,0,0,0,0,1,0,0,0,0,0,1,0,0,0,1,0,1,1,0,0,1,0,1,1,0,0,0,1,1,1,0
COYA,4.0,-0.32814924561338926,$$$$,False,51.504414,-0.14787,False,False,2026,144.0,147.0,247.0,493.0,995.0,0.0,3,0,0,0,0,0,0,1,0,0,0,0,0,0,1,0,0,0,0,0,0,1,0,1,1,0,0,1,0,0,1,1,0,1,1,1,1,1
Brother Marcus Borough,4.5,0.7211120136822641,$$ - $$$,False,51.506058,-0.086783,False,False,227,9.0,14.0,10.0,14.0,180.0,0.0,5,0,0,0,1,1,1,0,0,0,0,1,0,0,0,0,0,0,0,0,0,1,0,1,1,0,0,1,1,1,1,1,0,1,1,1,1,0
Liman Restaurant,5.0,1.7703732729779174,$$ - $$$,False,51.53348,-0.111263,True,False,1500,12.0,9.0,42.0,146.0,1291.0,0.0,4,0,0,0,0,1,1,0,0,0,0,1,0,0,0,0,0,0,0,0,0,1,0,1,1,0,1,1,0,1,1,0,0,0,1,1,1,0
Colbert,3.5,-1.3774105049090426,$$ - $$$,False,51.49278,-0.156566,False,False,1592,134.0,135.0,251.0,556.0,517.0,0.0,2,0,0,0,0,0,0,0,0,0,0,1,0,0,0,0,0,0,1,0,0,1,0,1,1,0,0,1,1,1,1,0,0,1,1,1,1,0
Masala Zone Covent Garden,4.0,-0.32814924561338926,$$ - $$$,False,51.513348,-0.122841,True,True,3307,191.0,178.0,417.0,1153.0,1368.0,0.0,2,0,0,0,1,0,0,0,1,0,0,0,0,0,0,0,0,0,0,0,0,1,1,0,1,0,1,1,0,1,1,1,0,0,1,1,1,0
Hobson's Fish & Chips,4.5,0.7211120136822641,$,False,51.516422,-0.187841,True,False,498,19.0,21.0,33.0,133.0,292.0,0.0,3,0,0,0,0,1,0,0,0,0,0,1,0,0,0,0,0,1,0,0,0,0,0,1,0,0,0,1,0,1,1,0,0,0,1,1,1,0
Le Bistro Savoir Faire,4.5,0.7211120136822641,$$ - $$$,False,51.51716,-0.125841,False,False,1268,39.0,50.0,86.0,369.0,724.0,0.0,5,1,1,0,0,0,0,0,0,0,1,1,0,0,0,0,0,0,1,0,0,1,0,1,1,0,0,0,0,0,1,0,0,0,1,1,1,0
Apulia,4.5,0.7211120136822641,$$ - $$$,False,51.519043,-0.100453,False,False,551,18.0,31.0,36.0,139.0,327.0,0.0,4,1,0,0,0,1,0,0,0,0,0,1,1,0,0,0,0,0,0,0,0,1,0,1,1,0,0,1,0,1,1,0,0,0,1,1,1,0
Gillray's Steakhouse & Bar,4.5,0.7211120136822641,$$$$,False,51.501846,-0.119342,False,True,2675,116.0,130.0,174.0,349.0,1908.0,0.0,4,0,0,0,0,1,0,0,0,0,0,1,0,0,0,0,0,1,0,0,0,1,0,1,1,0,0,1,0,1,1,0,0,0,1,1,1,0
The English Rose Cafe,4.5,0.7211120136822641,$,False,51.498074,-0.144476,False,False,1117,38.0,40.0,51.0,229.0,759.0,0.0,2,0,0,0,0,0,0,0,0,0,0,0,0,0,0,0,1,1,0,0,0,0,0,0,1,0,0,0,0,1,1,1,0,1,0,0,1,0
Osteria Romana,4.5,0.7211120136822641,$$ - $$$,False,51.50204,-0.162861,True,True,1284,25.0,28.0,48.0,99.0,1084.0,0.0,1,1,0,0,0,0,0,0,0,0,0,0,0,0,0,0,0,0,0,0,0,1,0,1,1,0,0,1,0,1,1,0,0,0,1,1,1,0
Beast,4.5,0.7211120136822641,$$$$,False,51.51517,-0.146788,False,False,681,20.0,23.0,62.0,190.0,386.0,0.0,3,0,0,0,0,1,0,0,0,0,0,0,0,0,0,0,0,0,0,0,0,0,0,1,0,0,0,1,0,1,1,0,0,0,1,1,1,0
Popolo Shoreditch,4.5,0.7211120136822641,$$ - $$$,False,51.526054,-0.082098,False,False,317,6.0,9.0,19.0,52.0,231.0,0.0,2,1,0,0,0,1,0,0,0,0,0,0,0,0,0,0,0,0,0,0,0,1,0,1,1,0,0,0,0,0,1,0,0,0,1,0,1,0
Tavolino Bar & Kitchen,3.5,-1.3774105049090426,$$ - $$$,False,51.505474,-0.080249,False,False,340,46.0,48.0,43.0,55.0,148.0,0.0,2,1,0,0,0,1,0,0,0,0,0,0,0,0,0,0,0,0,0,0,0,0,0,1,1,0,0,1,0,1,1,1,1,1,1,1,1,0
Salsa Temple,4.5,0.7211120136822641,$$ - $$$,False,51.511024,-0.11424,False,False,1154,105.0,26.0,20.0,47.0,956.0,0.0,2,0,0,0,0,0,0,0,0,0,0,1,0,0,1,0,0,0,0,0,0,1,0,0,1,0,0,1,0,1,1,0,0,0,1,1,1,0
Bradley's,4.5,0.7211120136822641,$$ - $$$,False,51.543415,-0.172631,False,False,408,8.0,12.0,27.0,136.0,225.0,0.0,2,0,0,0,0,0,0,0,0,0,0,1,0,0,0,0,0,1,0,0,0,1,0,1,1,0,0,0,1,1,1,0,0,0,1,1,1,0
Cora Pearl Restaurant,4.5,0.7211120136822641,$$ - $$$,False,51.511196,-0.123626,False,False,347,10.0,10.0,15.0,61.0,251.0,0.0,2,0,0,0,0,0,0,0,0,0,0,1,0,0,0,0,0,1,0,0,0,1,0,1,1,0,0,1,0,0,1,0,0,0,1,1,1,0
Ben's Fish & Chips Restaurant,4.5,0.7211120136822641,$,False,51.515434,-0.126624,False,False,406,17.0,22.0,25.0,115.0,227.0,0.0,3,0,0,0,0,1,0,0,0,0,0,0,0,0,0,0,0,1,0,1,0,0,0,0,0,1,0,0,0,1,0,0,0,0,1,0,1,0
Sergio's,4.5,0.7211120136822641,$$ - $$$,False,51.51908,-0.140704,False,True,1572,48.0,56.0,83.0,215.0,1170.0,0.0,7,1,0,0,0,1,0,1,0,0,0,1,1,0,0,0,0,0,0,0,0,0,0,0,0,1,0,1,1,1,1,1,0,0,1,1,1,1
The Wolseley,4.0,-0.32814924561338926,$$$$,False,51.50749,-0.140978,False,False,8322,235.0,469.0,1036.0,2391.0,4191.0,1.0,3,0,0,0,0,0,0,0,0,0,0,1,0,0,0,0,0,1,0,0,0,1,0,0,1,0,0,0,0,1,1,0,0,1,1,1,1,0
Sticky Mango Tower Bridge,4.5,0.7211120136822641,$$ - $$$,False,51.503468,-0.07313,False,False,181,5.0,6.0,7.0,10.0,153.0,0.0,3,0,0,0,0,0,0,1,0,0,0,0,0,1,0,1,0,0,0,0,0,1,0,0,1,0,1,0,0,1,1,1,0,1,1,1,1,0
Mallow - Borough Market,5.0,1.7703732729779174,$$ - $$$,False,51.506252,-0.090403,False,False,530,3.0,8.0,23.0,38.0,458.0,0.0,3,0,0,0,1,0,0,1,0,0,0,0,0,0,0,0,0,1,0,0,0,1,0,1,1,0,0,1,1,0,1,1,0,1,1,1,1,0
Browns Covent Garden,4.0,-0.32814924561338926,$$ - $$$,False,51.511314,-0.127275,False,False,4750,345.0,409.0,586.0,1123.0,2289.0,0.0,1,0,0,0,0,0,0,0,0,0,0,0,0,0,0,0,0,1,0,0,0,1,0,1,1,0,0,1,0,1,1,0,0,0,1,1,1,0
Mio Restaurant,5.0,1.7703732729779174,$,False,51.496677,-0.133371,False,False,391,2.0,5.0,11.0,40.0,333.0,0.0,5,1,0,0,0,0,0,0,0,0,0,0,1,0,0,0,0,0,0,0,0,1,0,1,1,0,0,0,0,0,1,0,0,0,1,1,1,0
Cafe Murano - Covent Garden,4.0,-0.32814924561338926,$$ - $$$,False,51.512207,-0.120127,False,False,1149,46.0,101.0,204.0,307.0,491.0,0.0,3,1,0,0,0,1,0,0,0,0,0,1,0,0,0,0,0,0,0,0,0,1,0,1,1,0,1,1,0,1,1,0,0,0,1,1,1,0
Nobu London Old Park Lane,4.0,-0.32814924561338926,$$$$,False,51.50515,-0.150135,True,False,2519,132.0,193.0,392.0,688.0,1114.0,1.0,4,0,0,0,0,1,0,0,0,0,0,0,0,1,0,1,0,0,0,0,0,1,0,1,1,0,0,1,0,1,1,0,0,1,1,1,1,0
Chettinad Restaurant,4.5,0.7211120136822641,$$ - $$$,False,51.518497,-0.132832,True,False,3623,61.0,79.0,229.0,884.0,2372.0,0.0,1,0,0,0,0,0,0,0,1,0,0,0,0,0,0,0,0,0,0,0,0,1,0,1,1,0,0,1,0,1,1,0,0,0,1,1,1,0
Supawan Thai Restaurant,4.5,0.7211120136822641,$$ - $$$,False,51.531963,-0.120504,True,False,338,7.0,10.0,18.0,50.0,253.0,0.0,2,0,0,0,0,0,0,0,0,0,0,0,0,1,0,0,0,0,0,0,0,1,0,1,1,0,0,0,0,0,1,1,0,1,1,1,1,0
Bravas Tapas,4.5,0.7211120136822641,$$ - $$$,False,51.5076,-0.071186,False,False,1144,71.0,42.0,93.0,252.0,686.0,0.0,1,0,0,0,0,0,0,0,0,0,0,1,0,0,0,0,0,0,0,0,0,1,0,1,1,0,0,1,0,1,1,0,0,0,1,1,1,0
34 Mayfair,4.0,-0.32814924561338926,$$$$,False,51.51042,-0.152194,False,False,978,57.0,80.0,120.0,266.0,455.0,0.0,3,0,0,0,0,1,0,0,0,0,0,1,0,0,0,0,0,0,0,0,0,1,0,1,1,0,0,1,0,0,1,0,0,0,1,1,1,1
Golden Chippy,5.0,1.7703732729779174,$,False,51.47588,-0.018591,True,False,2436,17.0,17.0,57.0,254.0,2091.0,0.0,2,0,0,0,0,1,0,0,0,0,0,0,0,0,0,0,0,1,0,0,0,0,0,0,0,1,0,0,0,1,1,0,0,0,1,0,1,0
Darjeeling Express,4.5,0.7211120136822641,$$ - $$$,False,51.512623,-0.138695,False,False,579,21.0,41.0,62.0,86.0,369.0,1.0,2,0,0,0,0,0,0,0,1,0,0,0,0,1,0,0,0,0,0,0,0,1,0,1,1,0,0,1,0,1,1,1,0,1,1,1,1,0
J Sheekey,4.5,0.7211120136822641,$$$$,False,51.51095,-0.127867,False,False,3461,99.0,158.0,351.0,828.0,2025.0,0.0,2,0,0,0,0,1,0,0,0,0,0,0,0,0,0,0,0,1,0,0,0,0,0,1,1,0,0,0,0,1,1,0,0,1,1,1,1,0
Guinea Grill,4.5,0.7211120136822641,$$$$,False,51.511086,-0.144966,False,False,921,45.0,39.0,84.0,208.0,546.0,0.0,3,0,0,0,0,1,0,0,0,0,1,0,0,0,0,0,0,1,0,0,0,0,0,1,0,0,0,1,0,0,1,0,0,0,1,1,1,0
Sanjugo Angel,5.0,1.7703732729779174,$$ - $$$,False,51.533627,-0.104623,True,False,139,3.0,0.0,2.0,8.0,126.0,0.0,3,0,0,0,0,0,0,0,0,0,0,0,0,1,0,1,0,0,0,0,0,1,0,1,1,0,0,0,0,0,0,0,0,0,1,1,1,0
Blacklock City,4.5,0.7211120136822641,$$ - $$$,False,51.510838,-0.084148,False,False,739,9.0,15.0,36.0,93.0,586.0,0.0,4,0,1,0,0,1,0,0,0,0,0,0,0,0,0,0,0,1,0,0,0,0,0,1,0,0,0,1,0,0,1,0,0,0,1,1,1,0
The Coal Shed,4.0,-0.32814924561338926,$$ - $$$,False,51.503876,-0.078303,False,False,556,27.0,47.0,63.0,130.0,289.0,0.0,4,0,0,0,0,1,0,0,0,0,0,1,0,0,0,0,0,1,0,0,0,0,0,1,1,0,0,1,0,1,1,0,0,1,1,1,1,0
Sketch Lecture Room and Library,4.5,0.7211120136822641,$$$$,False,51.512684,-0.141461,False,True,1178,34.0,36.0,59.0,186.0,863.0,0.0,3,0,0,0,0,0,0,1,0,0,0,1,0,0,0,0,0,0,1,0,0,1,0,0,1,0,0,1,0,0,1,0,0,0,1,1,1,0
The Ivy Cafe Wimbledon,4.0,-0.32814924561338926,$$ - $$$,False,51.42543,-0.217215,False,False,1066,75.0,80.0,154.0,279.0,478.0,0.0,1,0,0,0,0,0,0,0,0,0,0,0,0,0,0,0,0,1,0,0,0,1,0,1,1,0,0,1,0,1,1,0,0,1,1,1,1,0
Flat Iron Victoria,5.0,1.7703732729779174,$$ - $$$,False,51.49636,-0.14334,False,False,13,0.0,1.0,0.0,0.0,12.0,0.0,2,0,0,0,0,1,0,0,0,0,0,0,0,0,0,0,0,1,0,0,0,0,0,0,0,1,0,0,0,0,0,0,0,0,0,1,1,0
Bibo Shoreditch,4.5,0.7211120136822641,$$$$,False,51.52369,-0.08052,False,False,174,8.0,3.0,10.0,11.0,142.0,0.0,3,0,0,0,0,1,0,0,0,0,0,1,0,0,0,0,0,0,0,0,0,1,0,1,1,0,0,0,0,0,1,0,0,0,1,1,1,0
All Bar One Covent Garden,4.0,-0.32814924561338926,$$ - $$$,False,51.510662,-0.124259,False,False,1441,115.0,68.0,108.0,280.0,870.0,0.0,3,0,0,0,0,0,0,0,0,0,1,1,0,0,0,0,0,1,0,0,0,1,0,1,1,0,0,1,0,1,1,0,0,0,1,1,1,0
Brigadiers,4.5,0.7211120136822641,$$$$,False,51.51262,-0.091771,False,False,470,21.0,19.0,49.0,94.0,287.0,1.0,3,0,0,0,0,0,0,1,1,0,0,0,0,1,0,0,0,0,0,0,0,1,0,1,1,0,0,1,0,0,1,0,0,0,1,1,1,1
KöD London City,4.5,0.7211120136822641,$$ - $$$,False,51.516693,-0.078735,False,False,342,15.0,10.0,12.0,20.0,285.0,0.0,5,0,0,0,0,1,0,0,0,0,1,1,0,0,0,0,0,0,0,0,0,0,0,1,0,0,0,0,0,1,1,1,0,0,1,1,1,0
Eggbreak,4.0,-0.32814924561338926,$$ - $$$,False,51.508434,-0.197882,True,False,482,29.0,36.0,37.0,118.0,262.0,0.0,2,0,0,0,0,0,0,0,0,0,0,0,0,0,0,0,1,1,0,0,0,1,0,1,1,0,0,1,0,1,1,0,0,0,1,0,1,0
Inamo Covent Garden,3.5,-1.3774105049090426,$$ - $$$,False,51.51349,-0.12326,False,False,2949,474.0,337.0,335.0,415.0,1390.0,0.0,5,0,0,1,0,0,0,0,0,0,0,0,0,1,0,1,0,0,0,0,0,1,0,1,1,0,0,1,0,1,1,0,0,1,1,1,1,0
The Ivy Market Grill,4.0,-0.32814924561338926,$$ - $$$,False,51.511463,-0.122699,False,False,4542,316.0,326.0,543.0,1272.0,2085.0,0.0,1,0,0,0,0,0,0,0,0,0,0,0,0,0,0,0,0,1,0,0,0,1,0,1,1,0,0,1,0,1,1,0,0,1,1,1,1,0
The Grapes,4.0,-0.32814924561338926,$$ - $$$,False,51.508858,-0.03399,False,False,775,59.0,59.0,82.0,240.0,335.0,0.0,3,0,0,0,0,0,0,0,0,0,1,0,0,0,0,0,0,1,0,0,0,0,0,0,1,0,0,0,0,0,1,0,0,0,1,1,1,0
Vasinikó London,4.5,0.7211120136822641,$$ - $$$,False,51.511566,-0.120945,True,True,282,7.0,7.0,11.0,23.0,234.0,0.0,7,1,0,0,0,0,0,0,0,0,0,0,1,0,0,0,0,0,0,0,0,1,0,0,1,0,0,1,0,1,1,1,0,0,1,1,1,0
"The Gun, Docklands",4.0,-0.32814924561338926,$$ - $$$,False,51.501827,-0.007761,False,False,1188,45.0,86.0,117.0,330.0,610.0,0.0,4,0,0,0,0,0,0,0,0,0,1,0,0,0,0,0,0,1,0,0,0,0,0,0,1,0,1,1,1,1,1,0,1,0,1,1,1,0
La Mia Mamma Notting Hill,4.5,0.7211120136822641,$$ - $$$,False,51.51559,-0.205594,True,False,139,5.0,4.0,15.0,12.0,103.0,0.0,6,1,0,0,0,1,0,0,0,0,0,0,1,0,0,0,0,0,0,0,0,0,0,1,1,0,0,0,0,0,1,0,0,1,1,1,1,0
The Duke Of Sussex,4.0,-0.32814924561338926,$$ - $$$,False,51.501186,-0.110116,False,False,325,27.0,25.0,33.0,94.0,147.0,0.0,4,0,0,0,0,0,0,0,0,0,1,0,0,0,0,0,0,1,0,0,0,1,0,1,1,0,0,1,0,1,1,0,0,0,1,1,1,1
Japes,4.5,0.7211120136822641,$$ - $$$,False,51.514214,-0.132727,True,False,567,35.0,22.0,38.0,81.0,391.0,0.0,2,0,0,0,0,0,0,1,0,0,0,0,1,0,0,0,0,0,0,0,0,1,0,0,1,0,0,0,0,1,1,1,0,0,1,1,1,0
The Delaunay,4.5,0.7211120136822641,$$ - $$$,False,51.513016,-0.118206,False,False,3570,65.0,145.0,363.0,1140.0,1857.0,0.0,3,0,0,0,0,0,0,0,0,0,0,1,0,0,0,0,0,0,0,0,0,1,0,0,1,0,0,1,0,1,1,1,0,1,1,1,1,0
STK Rooftop Steakhouse & Bar,4.5,0.7211120136822641,$$ - $$$,False,51.546394,-0.007962,True,False,217,16.0,9.0,10.0,15.0,168.0,0.0,3,0,1,0,0,1,0,0,0,0,0,0,0,0,0,0,0,0,0,0,0,0,0,1,0,0,0,0,0,0,0,0,0,0,1,1,1,0
Naughty piglets,4.5,0.7211120136822641,$$ - $$$,False,51.455154,-0.113132,False,False,271,9.0,4.0,12.0,38.0,208.0,0.0,2,0,0,0,0,0,0,0,0,0,1,1,0,0,0,0,0,0,0,0,0,0,0,1,1,0,0,0,0,0,1,0,0,0,1,1,1,0
Hawksmoor Seven Dials | Covent Garden,4.5,0.7211120136822641,$$$$,False,51.51346,-0.125723,False,True,4749,60.0,165.0,412.0,1101.0,3011.0,0.0,5,0,0,0,0,1,0,0,0,0,1,0,0,0,0,0,0,1,0,0,0,0,0,1,1,0,0,1,0,1,1,0,0,1,1,1,1,0
Devine Restaurant Coffee Bar,5.0,1.7703732729779174,$,False,51.51103,-0.075651,True,False,1304,4.0,0.0,0.0,31.0,1276.0,0.0,3,0,0,0,0,0,0,0,0,0,0,1,0,0,0,0,1,1,0,0,0,1,0,1,1,0,0,0,0,0,1,0,0,0,1,0,1,0
Coal Office Restaurant,4.5,0.7211120136822641,$$ - $$$,False,51.53492,-0.12628,False,False,451,14.0,19.0,41.0,76.0,302.0,0.0,3,0,0,0,0,1,1,0,0,0,0,0,0,0,0,0,0,0,0,0,0,1,0,1,1,0,0,1,0,1,1,1,0,1,1,1,1,0
Chez Antoinette,4.5,0.7211120136822641,$$ - $$$,False,51.511654,-0.122896,False,False,1055,11.0,18.0,59.0,257.0,710.0,0.0,3,0,0,0,1,0,0,0,0,0,0,1,0,0,0,0,0,0,1,0,0,1,0,1,1,0,0,1,0,0,1,0,0,1,1,0,1,0
The Quality Chop House,4.0,-0.32814924561338926,$$ - $$$,False,51.524742,-0.110078,False,False,512,22.0,29.0,58.0,138.0,265.0,0.0,2,0,0,0,0,0,0,0,0,0,0,1,0,0,0,0,0,1,0,0,0,0,0,1,1,0,0,0,0,0,1,0,0,0,1,1,1,0
Circe's Rooftop Waterloo,4.5,0.7211120136822641,$$ - $$$,False,51.50272,-0.11004,False,False,32,2.0,1.0,0.0,6.0,23.0,0.0,1,0,0,0,0,0,0,0,0,0,1,0,0,0,0,0,0,0,0,0,0,0,0,0,0,1,0,1,0,0,1,0,0,0,1,1,1,1
Margot,4.5,0.7211120136822641,$$ - $$$,False,51.514668,-0.121702,False,False,899,22.0,24.0,75.0,169.0,610.0,1.0,1,1,0,0,0,0,0,0,0,0,0,0,0,0,0,0,0,0,0,0,0,1,0,1,1,0,0,1,0,1,1,0,0,1,1,1,1,0
VICINITY,4.0,-0.32814924561338926,$$ - $$$,False,51.50674,-0.073299,False,False,1451,118.0,90.0,146.0,278.0,816.0,0.0,3,0,0,0,0,0,0,1,0,0,0,0,0,0,0,0,1,1,0,0,0,1,0,1,1,0,0,1,0,1,1,0,0,0,1,1,1,0
Wright Brothers South Kensington,4.5,0.7211120136822641,$$ - $$$,False,51.493126,-0.176406,False,False,392,12.0,14.0,27.0,125.0,214.0,0.0,3,0,0,0,0,1,0,0,0,0,0,1,0,0,0,0,0,1,0,0,0,0,0,1,0,0,0,0,0,0,1,0,0,1,1,1,1,0
Zuma London,4.5,0.7211120136822641,$$$$,False,51.500973,-0.163177,False,False,3005,71.0,75.0,229.0,631.0,2000.0,0.0,5,0,0,0,1,1,0,0,0,0,0,0,0,1,0,1,0,0,0,0,0,1,0,1,1,0,0,1,0,1,1,0,0,1,1,1,1,0
Wahaca Southbank,4.0,-0.32814924561338926,$$ - $$$,False,51.50675,-0.116126,False,False,1791,89.0,82.0,191.0,556.0,873.0,0.0,2,0,0,0,0,0,0,0,0,0,0,0,0,0,1,0,0,0,0,1,0,1,0,1,1,0,0,1,0,1,1,0,0,0,1,1,1,0
House Of Ming,5.0,1.7703732729779174,$$$$,False,51.498558,-0.137107,False,False,763,4.0,6.0,9.0,32.0,712.0,0.0,7,0,0,1,0,1,0,1,0,0,0,1,0,1,0,0,0,0,0,0,0,1,0,1,1,0,0,1,0,1,1,1,0,1,1,1,1,0
Ma La Sichuan,4.5,0.7211120136822641,$$ - $$$,False,51.496777,-0.130542,False,False,520,20.0,21.0,36.0,133.0,310.0,0.0,3,0,0,1,0,0,0,0,0,0,0,0,0,1,0,0,0,0,0,0,0,1,0,1,1,0,1,0,0,1,1,0,0,0,1,1,1,0
Blacklock Canary Wharf,4.5,0.7211120136822641,$$ - $$$,False,51.505817,-0.020752,False,False,137,3.0,1.0,8.0,11.0,114.0,0.0,3,0,0,0,0,1,0,1,0,0,0,0,0,0,0,0,0,1,0,0,0,0,0,1,0,0,0,1,1,1,1,1,1,1,1,1,1,0
The Barley Mow Mayfair,4.5,0.7211120136822641,$$ - $$$,False,51.51302,-0.150923,False,False,97,5.0,5.0,6.0,7.0,74.0,0.0,3,0,0,0,0,0,0,0,0,0,1,1,0,0,0,0,0,1,0,0,0,0,0,1,1,0,0,1,0,1,1,0,0,0,1,1,1,1
Mama’s Kubo,5.0,1.7703732729779174,$$ - $$$,False,51.55284,-0.188133,False,False,48,0.0,0.0,1.0,1.0,46.0,0.0,2,0,0,0,0,0,0,0,0,0,0,0,0,1,0,0,0,0,0,0,0,1,0,0,1,0,1,0,1,1,1,0,0,0,1,1,1,0
Pie Crust,4.5,0.7211120136822641,$,False,51.536346,-0.003818,False,False,272,6.0,7.0,12.0,65.0,182.0,0.0,2,0,0,0,0,0,0,0,0,0,0,0,0,1,0,0,0,0,0,0,0,1,0,1,1,0,0,0,0,0,0,0,0,0,1,1,1,0
Altonapoli Italian Restaurant Paddington,5.0,1.7703732729779174,$$ - $$$,False,51.51477,-0.176709,True,False,485,9.0,7.0,8.0,42.0,419.0,0.0,1,1,0,0,0,0,0,0,0,0,0,0,0,0,0,0,0,0,0,0,0,1,0,0,1,0,0,0,0,1,0,0,0,0,1,1,1,0
Punjab Restaurant,4.0,-0.32814924561338926,$$ - $$$,False,51.5151,-0.126579,False,False,3016,162.0,128.0,286.0,903.0,1537.0,0.0,1,0,0,0,0,0,0,0,1,0,0,0,0,0,0,0,0,0,0,0,0,1,0,1,1,0,0,0,0,1,1,0,0,0,1,0,1,0
Pick & Cheese,4.5,0.7211120136822641,$$ - $$$,False,51.51418,-0.126147,False,False,169,3.0,3.0,13.0,30.0,120.0,0.0,2,0,0,0,0,0,0,0,0,0,1,0,0,0,0,0,0,1,0,0,0,0,0,0,1,0,0,0,0,0,1,0,0,0,1,1,1,0
Miller & Carter,4.5,0.7211120136822641,$$ - $$$,False,51.590153,-0.1443,True,False,828,43.0,40.0,41.0,82.0,622.0,0.0,1,0,0,0,0,1,0,0,0,0,0,0,0,0,0,0,0,0,0,0,0,0,0,1,1,0,0,1,0,1,0,0,0,1,1,1,1,0
The Coal Hole,4.0,-0.32814924561338926,$$ - $$$,False,51.5104,-0.121299,False,False,1435,101.0,88.0,174.0,558.0,514.0,0.0,3,0,0,0,0,0,0,0,0,0,1,0,0,0,0,0,0,1,0,0,0,0,0,0,1,0,0,0,0,0,1,0,0,1,1,1,1,0
Homeslice Neal's Yard,4.5,0.7211120136822641,$$ - $$$,False,51.5146,-0.126445,True,False,1631,70.0,50.0,108.0,407.0,996.0,0.0,2,1,0,0,0,0,0,0,0,0,0,0,1,0,0,0,0,0,0,0,0,1,0,0,1,0,0,0,0,1,1,0,0,0,1,0,1,0
The Escoffier Room,4.5,0.7211120136822641,$$ - $$$,False,51.494904,-0.135628,False,False,419,1.0,5.0,12.0,75.0,326.0,0.0,3,0,0,0,0,0,0,1,0,0,0,1,0,0,0,0,0,0,0,0,0,0,0,1,1,0,1,1,0,1,1,1,0,1,1,1,1,0
Phoenix,4.0,-0.32814924561338926,$$ - $$$,False,51.513542,-0.189458,False,False,284,22.0,10.0,20.0,89.0,143.0,0.0,4,0,0,0,0,1,0,0,0,0,1,0,0,0,0,0,0,1,0,0,0,1,0,0,1,0,1,1,1,1,1,1,0,0,1,1,1,1
Steak And Lobster Warren Street,4.5,0.7211120136822641,$$ - $$$,False,51.52426,-0.138425,False,False,2517,59.0,65.0,123.0,352.0,1919.0,0.0,5,0,0,0,1,1,0,0,0,0,0,1,0,0,0,0,0,1,0,0,0,1,0,1,1,0,0,1,0,1,1,0,0,0,1,1,1,0
Mike's Cafe,4.0,-0.32814924561338926,$,False,51.515797,-0.205648,False,False,370,30.0,11.0,31.0,109.0,189.0,0.0,2,0,0,0,0,0,0,0,0,0,0,0,0,0,0,0,1,1,0,0,0,1,0,1,1,0,0,1,0,1,0,0,0,0,1,0,1,0
L'ulivo Restuarant,4.5,0.7211120136822641,$$ - $$$,False,51.51012,-0.122762,False,False,68,6.0,2.0,3.0,7.0,50.0,0.0,1,1,0,0,0,0,0,0,0,0,0,0,0,0,0,0,0,0,0,0,0,1,0,0,1,0,0,0,0,0,1,0,0,0,1,1,1,0
The Mayor of Scaredy Cat town,4.0,-0.32814924561338926,$$ - $$$,False,51.518414,-0.0788,False,False,397,36.0,16.0,23.0,121.0,201.0,0.0,1,0,0,0,0,0,0,0,0,0,1,0,0,0,0,0,0,0,0,0,0,0,0,0,1,0,0,1,0,0,1,0,0,0,1,1,1,0
Sticks'n'Sushi Covent Garden,4.5,0.7211120136822641,$$ - $$$,False,51.51105,-0.12364,False,False,2741,56.0,72.0,191.0,726.0,1696.0,0.0,4,0,0,0,0,1,0,0,0,0,0,0,0,1,0,1,0,0,0,0,0,1,0,1,1,0,0,1,0,1,1,1,0,1,1,1,1,0
Bon Gusto,4.5,0.7211120136822641,$$ - $$$,False,51.499207,-0.137831,False,False,718,13.0,20.0,45.0,168.0,472.0,0.0,1,1,0,0,0,0,0,0,0,0,0,0,0,0,0,0,0,0,0,0,0,1,0,1,1,0,0,0,0,1,0,0,0,0,1,1,1,0
Santo Remedio,4.0,-0.32814924561338926,$$ - $$$,False,51.50357,-0.080999,False,False,369,24.0,39.0,35.0,68.0,204.0,1.0,2,0,0,0,0,0,0,0,0,0,0,0,0,0,1,0,0,0,0,0,0,1,0,1,1,0,0,1,0,1,1,1,0,0,1,1,1,0
Pétrus by Gordon Ramsay,4.5,0.7211120136822641,$$$$,False,51.4996,-0.156781,False,False,4208,68.0,87.0,285.0,564.0,3204.0,1.0,2,0,0,0,0,0,0,0,0,0,0,1,0,0,0,0,0,0,1,0,0,1,0,1,1,0,0,0,0,1,1,0,0,0,1,1,1,0
The Clarence,4.0,-0.32814924561338926,$$ - $$$,False,51.506153,-0.126724,False,False,985,43.0,42.0,120.0,395.0,385.0,0.0,1,0,0,0,0,0,0,0,0,0,0,0,0,0,0,0,0,1,0,0,0,0,0,1,1,0,0,1,0,1,1,0,0,0,1,1,1,1
Barrafina Dean Street,4.5,0.7211120136822641,$$ - $$$,False,51.513897,-0.131723,False,False,2057,67.0,64.0,124.0,412.0,1390.0,0.0,4,0,0,0,0,1,0,0,0,0,0,1,0,0,0,0,0,0,0,0,0,1,0,1,1,0,0,0,0,0,1,0,0,0,1,0,1,0
Heroica Lounge,4.5,0.7211120136822641,$$ - $$$,False,51.507828,0.019161,True,True,205,13.0,4.0,5.0,15.0,168.0,0.0,5,1,0,0,0,0,0,0,0,0,0,0,1,0,0,0,0,0,0,0,0,1,0,0,1,0,0,0,0,0,0,0,0,0,1,1,1,0
Annabel's,4.5,0.7211120136822641,$$$$,False,51.5092,-0.146191,False,False,158,12.0,3.0,12.0,36.0,95.0,0.0,3,0,0,0,0,0,0,0,0,0,1,0,0,0,0,0,0,1,1,0,0,0,0,1,1,0,0,1,0,0,1,0,0,0,1,1,1,0
La Terrazza Kensington,4.5,0.7211120136822641,$$$$,False,51.494896,-0.190072,False,False,325,8.0,10.0,10.0,48.0,250.0,0.0,1,1,0,0,0,0,0,0,0,0,0,0,0,0,0,0,0,0,0,0,0,0,0,0,0,1,0,1,0,1,1,0,0,0,1,1,1,0
Rossopomodoro - Covent Garden,4.0,-0.32814924561338926,$$ - $$$,False,51.51299,-0.127349,True,False,1756,162.0,133.0,230.0,534.0,698.0,0.0,6,1,0,0,0,0,0,0,0,0,0,1,1,0,0,0,0,0,0,0,0,1,0,1,1,0,0,1,0,1,1,0,0,0,1,1,1,0
Rick Stein Barnes,4.0,-0.32814924561338926,$$ - $$$,False,51.47062,-0.256693,False,False,972,65.0,94.0,168.0,200.0,445.0,0.0,3,0,0,0,0,1,0,0,0,0,0,1,0,0,0,0,0,1,0,0,0,0,0,1,1,0,0,1,0,1,1,0,0,0,1,1,1,0
Haidilao Hot Pot London Piccadilly,4.5,0.7211120136822641,$$ - $$$,False,51.510315,-0.13284,True,False,106,5.0,3.0,9.0,27.0,62.0,0.0,3,0,0,1,0,0,0,0,0,0,0,1,0,1,0,0,0,0,0,0,0,0,0,1,1,0,0,1,0,0,1,0,0,0,1,1,1,0
The Bermondsey Bierkeller,5.0,1.7703732729779174,$$ - $$$,False,51.506363,-0.088484,False,False,213,7.0,1.0,2.0,16.0,187.0,0.0,6,0,1,0,0,0,0,0,0,0,1,1,1,0,0,0,0,0,0,0,0,0,0,0,0,1,0,1,0,1,1,1,0,0,1,1,1,1
Manteca,4.0,-0.32814924561338926,$$ - $$$,False,51.524014,-0.080558,False,False,246,23.0,13.0,37.0,39.0,134.0,0.0,3,1,0,0,0,1,0,0,0,0,0,1,0,0,0,0,0,0,0,0,0,1,0,0,1,0,0,1,0,0,1,0,0,0,1,1,1,0
Franco Manca London Bridge,4.5,0.7211120136822641,$$ - $$$,False,51.50643,-0.090753,True,False,271,8.0,9.0,4.0,24.0,226.0,0.0,6,1,0,0,0,0,0,0,0,0,0,0,1,0,0,0,0,0,0,0,0,1,0,0,1,0,0,0,0,1,0,0,0,0,1,1,1,0
Sanjugo Shoreditch,5.0,1.7703732729779174,$,False,51.523293,-0.082212,True,False,237,2.0,3.0,4.0,23.0,205.0,0.0,4,0,0,0,0,1,0,0,0,0,0,0,0,1,0,1,0,0,0,0,0,1,0,1,1,0,0,0,0,0,1,0,0,0,1,1,1,0
Turmeric Kitchen– Paddington,4.5,0.7211120136822641,$$ - $$$,False,51.515244,-0.178129,False,False,110,4.0,0.0,4.0,10.0,92.0,0.0,2,0,0,0,0,0,0,1,1,0,0,0,0,0,0,0,0,0,0,0,0,1,0,1,1,0,0,1,0,1,1,1,0,0,1,1,1,0
José Pizarro’s Restaurant,4.5,0.7211120136822641,$$ - $$$,False,51.5006,-0.081796,False,False,855,28.0,14.0,52.0,185.0,576.0,0.0,3,0,0,0,0,1,0,0,0,0,0,1,0,0,0,0,0,0,0,0,0,0,0,1,1,0,0,0,0,0,1,0,0,1,1,0,1,0
Madison,4.0,-0.32814924561338926,$$ - $$$,False,51.51384,-0.095383,False,False,2972,490.0,188.0,231.0,507.0,1556.0,0.0,4,0,0,0,0,1,0,1,0,0,0,1,0,0,0,0,0,1,0,0,0,1,0,1,1,0,0,1,0,1,1,0,0,1,1,1,1,1
Adam & Eve,4.5,0.7211120136822641,$$ - $$$,False,51.499493,-0.135651,False,False,406,15.0,16.0,32.0,59.0,284.0,0.0,3,0,0,0,0,0,0,0,0,0,1,0,0,0,0,0,0,1,0,0,0,0,0,1,1,0,1,1,1,0,1,1,0,0,1,1,1,1
The Lamb & Flag,4.5,0.7211120136822641,$$ - $$$,False,51.511692,-0.125656,False,False,1285,43.0,32.0,105.0,444.0,662.0,0.0,4,0,0,0,0,0,0,0,0,0,1,0,0,0,0,0,0,1,0,0,0,1,0,0,1,0,1,1,0,1,1,0,0,0,1,1,1,1
The Ivy Cafe Blackheath,3.5,-1.3774105049090426,$$ - $$$,False,51.467674,0.008257,False,False,653,84.0,82.0,98.0,88.0,302.0,0.0,2,1,0,0,0,0,0,1,0,0,0,0,0,0,0,0,0,0,0,0,0,1,0,1,1,0,0,1,0,1,0,0,0,1,1,1,1,0
The Windmill Mayfair,4.5,0.7211120136822641,$$ - $$$,False,51.512413,-0.142172,False,False,993,38.0,49.0,54.0,253.0,599.0,0.0,4,0,0,0,0,0,0,0,0,0,1,0,0,0,0,0,0,1,0,0,0,0,0,0,1,0,0,1,1,0,1,0,0,1,1,1,1,1
Jack the Chipper,4.0,-0.32814924561338926,$,False,51.515694,-0.071208,True,False,241,24.0,15.0,21.0,40.0,142.0,0.0,2,0,0,0,0,0,0,0,0,0,0,0,0,0,0,0,0,1,0,1,0,0,0,0,0,1,0,0,0,1,1,1,0,0,1,1,1,0
Sparrow Italia Mayfair,4.5,0.7211120136822641,$$$$,False,51.512432,-0.145315,False,True,109,6.0,4.0,7.0,3.0,89.0,0.0,2,1,0,0,0,1,0,0,0,0,0,0,0,0,0,0,0,0,0,0,0,1,0,0,1,0,0,1,0,0,1,0,0,0,1,1,1,1
Fredericks Restaurant,4.5,0.7211120136822641,$$$$,False,51.534344,-0.104236,False,False,750,18.0,32.0,77.0,209.0,414.0,0.0,2,0,0,0,0,0,0,0,0,0,0,1,0,0,0,0,0,1,0,0,0,1,0,1,1,0,0,1,0,1,1,0,0,0,1,1,1,0
The Ivy Victoria,4.0,-0.32814924561338926,$$ - $$$,False,51.497276,-0.137908,False,False,642,65.0,85.0,89.0,95.0,308.0,0.0,1,0,0,0,0,0,0,0,0,0,0,0,0,0,0,0,0,1,0,0,0,0,0,1,1,0,0,0,0,0,1,0,0,1,1,1,1,0
Kerridge's Bar & Grill,4.0,-0.32814924561338926,$$$$,False,51.50678,-0.124665,False,False,1102,30.0,101.0,158.0,198.0,615.0,1.0,1,0,0,0,0,0,0,0,0,0,0,0,0,0,0,0,0,1,0,0,0,0,0,1,1,0,0,1,0,1,1,1,0,1,1,1,1,0
Hutong,4.0,-0.32814924561338926,$$$$,False,51.504456,-0.086475,False,False,7368,443.0,519.0,948.0,1673.0,3785.0,0.0,5,0,0,1,0,0,0,0,0,0,0,0,0,0,0,0,0,0,0,0,0,1,0,1,1,0,0,0,0,1,1,0,0,0,1,1,1,0
Pravaas - South Kensington,5.0,1.7703732729779174,$$ - $$$,False,51.493587,-0.175839,True,False,71,0.0,0.0,0.0,3.0,68.0,0.0,3,0,0,0,0,1,0,1,1,0,0,0,0,0,0,0,0,0,0,0,0,1,0,1,1,0,0,0,0,1,1,1,0,1,1,1,1,0
"The Euston Flyer, Euston Road",4.0,-0.32814924561338926,$$ - $$$,False,51.528736,-0.126799,False,False,624,36.0,30.0,85.0,276.0,197.0,0.0,4,0,0,0,0,0,0,0,0,0,1,0,0,0,0,0,0,1,0,0,0,0,0,0,1,0,0,1,0,1,1,0,0,0,1,1,1,1
Bocconi,4.5,0.7211120136822641,$$ - $$$,False,51.50308,-0.223496,False,False,181,9.0,5.0,4.0,34.0,129.0,0.0,4,1,0,0,0,1,0,0,0,0,1,1,0,0,0,0,0,0,0,0,0,0,0,0,0,1,0,1,0,1,1,0,0,0,1,1,1,0
Jacuzzi,3.5,-1.3774105049090426,$$ - $$$,False,51.501686,-0.192006,False,False,379,57.0,55.0,53.0,40.0,174.0,0.0,2,1,0,0,0,0,0,0,0,0,0,0,1,0,0,0,0,0,0,0,0,0,0,0,0,1,0,0,0,0,0,0,0,0,1,1,1,0
Tao Tao Ju,4.0,-0.32814924561338926,$$ - $$$,False,51.51155,-0.130676,True,False,777,65.0,51.0,76.0,266.0,319.0,0.0,3,0,0,1,0,0,0,0,0,0,0,0,0,0,0,0,0,0,0,0,0,1,0,0,1,0,0,0,0,1,1,0,0,0,1,1,1,0
Fatt Pundit,4.5,0.7211120136822641,$$ - $$$,False,51.514374,-0.135597,True,False,276,19.0,13.0,22.0,44.0,178.0,0.0,4,0,0,1,0,0,0,1,1,0,0,0,0,1,0,0,0,0,0,0,0,1,0,1,1,0,0,0,0,0,0,0,0,0,1,1,1,0
The Grazing Goat Marylebone,4.0,-0.32814924561338926,$$ - $$$,False,51.51526,-0.158113,False,False,1566,51.0,86.0,177.0,551.0,701.0,0.0,6,0,0,0,0,1,0,0,0,0,1,1,0,0,0,0,0,1,0,0,0,1,0,1,1,0,0,1,1,1,1,0,0,0,1,1,1,0
Côte Covent Garden,4.5,0.7211120136822641,$$ - $$$,False,51.512356,-0.120283,False,False,3267,85.0,123.0,294.0,1138.0,1628.0,0.0,1,0,0,0,0,0,0,0,0,0,0,1,0,0,0,0,0,0,0,0,0,1,0,1,1,0,0,1,0,1,1,0,0,1,1,1,1,0
Phoenix Palace,4.0,-0.32814924561338926,$$ - $$$,False,51.522495,-0.159062,True,False,925,60.0,49.0,95.0,253.0,469.0,0.0,6,0,0,1,0,0,0,0,0,0,0,0,0,1,0,0,0,0,0,0,0,1,0,1,1,0,0,0,0,1,1,0,0,0,1,1,1,0
La Palombe,5.0,1.7703732729779174,$$ - $$$,False,51.50193,-0.191018,False,False,137,3.0,0.0,1.0,4.0,130.0,0.0,2,0,0,0,0,0,0,1,0,0,0,0,0,0,0,0,0,0,1,0,0,1,0,1,1,0,0,0,1,1,1,0,0,1,1,1,1,0
Moro Restaurant,4.0,-0.32814924561338926,$$ - $$$,False,51.52587,-0.109008,False,False,1145,40.0,96.0,153.0,330.0,526.0,0.0,3,0,0,0,0,1,0,0,0,0,0,1,0,0,0,0,0,0,0,0,0,1,0,1,1,0,0,0,0,1,1,0,0,0,1,1,1,0
Spaghetti House Kensington High Street,4.5,0.7211120136822641,$$ - $$$,False,51.50224,-0.187993,True,False,826,27.0,27.0,71.0,242.0,459.0,0.0,5,1,0,0,1,1,0,0,0,0,0,1,1,0,0,0,0,0,0,0,0,1,0,1,1,0,0,1,0,1,1,0,0,1,1,1,1,0
Lobos,4.5,0.7211120136822641,$$ - $$$,False,51.51358,-0.131549,False,False,509,10.0,25.0,42.0,118.0,314.0,0.0,4,0,0,0,0,1,0,0,0,0,0,1,0,0,0,0,0,0,0,0,0,0,0,1,1,0,0,1,0,0,1,0,0,0,1,1,1,0
Half Cup,4.5,0.7211120136822641,$$ - $$$,False,51.52785,-0.124926,True,False,378,16.0,9.0,21.0,94.0,239.0,0.0,6,1,0,0,1,0,0,0,0,0,0,1,0,0,0,0,1,1,0,1,0,1,0,1,1,0,0,1,0,1,1,0,0,0,1,1,1,0
